{
  "version": 0.6,
  "generator": "Overpass API 0.7.62.11 87bfad18",
  "osm3s": {
    "timestamp_osm_base": "2026-03-27T14:26:52Z",
    "timestamp_areas_base": "2026-03-27T05:03:48Z",
    "copyright": "The data included in this document is from www.openstreetmap.org. The data is made available under ODbL."
  },
  "elements": [

{
  "type": "way",
  "id": 25339589,
  "center": {
    "lat": 46.8448185,
    "lon": 16.8612593
  },
  "nodes": [
    1453521638,
    8904961204,
    1776500818,
    9795623047,
    331964846
  ],
  "tags": {
    "agricultural": "no",
    "bicycle": "no",
    "carriage": "no",
    "highway": "primary",
    "lanes": "1",
    "lit": "yes",
    "maxspeed": "50",
    "maxspeed:type": "HU:urban",
    "name": "Balatoni út",
    "oneway": "yes",
    "priority_road": "yes",
    "ref": "762",
    "sidewalk": "no",
    "surface": "asphalt"
  }
},
{
  "type": "way",
  "id": 25339593,
  "center": {
    "lat": 46.8484705,
    "lon": 16.8275438
  },
  "nodes": [
    8433210738,
    1827044681,
    11073112358
  ],
  "tags": {
    "highway": "residential",
    "lanes": "1",
    "lit": "yes",
    "maxspeed": "30",
    "maxspeed:type": "sign",
    "name": "Falumúzeum utca",
    "sidewalk": "both",
    "surface": "asphalt"
  }
},
{
  "type": "way",
  "id": 25339595,
  "center": {
    "lat": 46.8563670,
    "lon": 16.7966168
  },
  "nodes": [
    386168970,
    2190151754,
    11253886012,
    12347821321,
    386169180,
    2190151663,
    2190151624,
    276097628,
    2190151725,
    2190151758,
    381941337
  ],
  "tags": {
    "cycleway:both": "no",
    "highway": "secondary",
    "lanes": "2",
    "lit": "yes",
    "maxspeed": "50",
    "maxspeed:type": "HU:urban",
    "name": "Teskándi út",
    "ref": "7405",
    "sidewalk:left": "separate",
    "surface": "asphalt"
  }
},
{
  "type": "way",
  "id": 25414770,
  "center": {
    "lat": 46.8442443,
    "lon": 16.8644178
  },
  "nodes": [
    276985009,
    2168579238
  ],
  "tags": {
    "cycleway:both": "no",
    "highway": "primary",
    "lanes": "5",
    "lanes:backward": "2",
    "lanes:forward": "3",
    "maxspeed": "50",
    "maxspeed:type": "HU:urban",
    "name": "Balatoni út",
    "priority_road": "yes",
    "ref": "762",
    "sidewalk:left": "separate",
    "surface": "asphalt",
    "turn:lanes:backward": "merge_to_right|",
    "turn:lanes:forward": "through|through|right"
  }
},
{
  "type": "way",
  "id": 25414774,
  "center": {
    "lat": 46.8480236,
    "lon": 16.8295947
  },
  "nodes": [
    276984663,
    8433210743,
    1776041469
  ],
  "tags": {
    "highway": "residential",
    "name": "Kertész utca"
  }
},
{
  "type": "way",
  "id": 25414921,
  "center": {
    "lat": 46.8441082,
    "lon": 16.8648445
  },
  "nodes": [
    276985009,
    2168579190,
    276985565,
    2168579155,
    10712336803,
    276985249
  ],
  "tags": {
    "highway": "primary",
    "lanes": "1",
    "lit": "yes",
    "maxspeed": "50",
    "maxspeed:type": "HU:urban",
    "name": "Balatoni út",
    "oneway": "yes",
    "priority_road": "yes",
    "ref": "762",
    "sidewalk:right": "separate",
    "surface": "asphalt"
  }
},
{
  "type": "way",
  "id": 25414984,
  "center": {
    "lat": 46.8441941,
    "lon": 16.8651039
  },
  "nodes": [
    2168579254,
    2168579175,
    2168579224
  ],
  "tags": {
    "cycleway:right": "no",
    "destination": "Zalaegerszeg-centrum;Körmend",
    "destination:ref": "762",
    "destination:symbol": "centre",
    "highway": "primary",
    "lanes": "2",
    "maxspeed": "50",
    "maxspeed:type": "HU:urban",
    "name": "Balatoni út",
    "oneway": "yes",
    "priority_road": "yes",
    "ref": "762",
    "sidewalk": "no",
    "surface": "asphalt"
  }
},
{
  "type": "way",
  "id": 29191164,
  "center": {
    "lat": 46.8480129,
    "lon": 16.8355546
  },
  "nodes": [
    9497558304,
    2183667025,
    321005144,
    1827044669,
    1776313742,
    321005145,
    10712336739,
    2183572540,
    1776313753,
    2183572573,
    321005146,
    7542413669
  ],
  "tags": {
    "highway": "residential",
    "name": "Vágóhíd utca",
    "surface": "asphalt"
  }
},
{
  "type": "way",
  "id": 30124357,
  "center": {
    "lat": 46.8624652,
    "lon": 16.8542734
  },
  "nodes": [
    2197990664,
    11244901416,
    2197990611
  ],
  "tags": {
    "HU:ed_direction": "forward",
    "cycleway:right": "no",
    "highway": "primary",
    "int_ref": "E 65",
    "lanes": "1",
    "lit": "yes",
    "maxspeed": "90",
    "maxspeed:type": "HU:rural",
    "name": "Egervári út",
    "oneway": "yes",
    "priority_road": "yes",
    "ref": "74;76",
    "ref:HU:edid": "74u50k457m",
    "surface": "asphalt",
    "toll:bus": "yes",
    "toll:hgv": "yes"
  }
},
{
  "type": "way",
  "id": 30124519,
  "center": {
    "lat": 46.8685166,
    "lon": 16.7945038
  },
  "nodes": [
    9895405178,
    2190190320,
    2190190328,
    2190190143,
    2190190380
  ],
  "tags": {
    "cycleway:both": "no",
    "highway": "primary",
    "lanes": "1",
    "lit": "yes",
    "maxspeed": "50",
    "maxspeed:type": "HU:urban",
    "name": "Hatházi utca",
    "oneway": "yes",
    "priority_road": "yes",
    "ref": "762",
    "sidewalk": "no",
    "surface": "asphalt"
  }
},
{
  "type": "way",
  "id": 31236325,
  "center": {
    "lat": 46.8663515,
    "lon": 16.8013494
  },
  "nodes": [
    2190189977,
    1110229039,
    2200095401,
    2190190077,
    2190190052,
    2190190065,
    1618879562,
    2190190465,
    11254046135,
    11254046136,
    11601935470,
    11601935469,
    13604214367,
    13604214368,
    347300762
  ],
  "tags": {
    "highway": "secondary",
    "lanes": "2",
    "lit": "yes",
    "maxspeed": "30",
    "maxspeed:type": "sign",
    "name": "Kutasi utca",
    "ref": "7404",
    "sidewalk:right": "separate",
    "surface": "asphalt"
  }
},
{
  "type": "way",
  "id": 31236328,
  "center": {
    "lat": 46.8667015,
    "lon": 16.8057038
  },
  "nodes": [
    347300762,
    2190190537,
    1618891798,
    2190189986,
    2191197088,
    2190190494,
    2191197012,
    1618879505,
    2191197057,
    1618891778,
    1618891775,
    347300511,
    12585269271,
    1618891808
  ],
  "tags": {
    "highway": "residential",
    "lanes": "2",
    "lit": "yes",
    "maxspeed": "50",
    "maxspeed:type": "HU:urban",
    "name": "Berek utca",
    "sidewalk": "no",
    "surface": "asphalt"
  }
},
{
  "type": "way",
  "id": 31590244,
  "center": {
    "lat": 46.8371279,
    "lon": 16.8455386
  },
  "nodes": [
    353549957,
    525443396,
    525436525,
    525436540,
    353549979
  ],
  "tags": {
    "highway": "tertiary",
    "lanes": "1",
    "lit": "yes",
    "maxspeed": "50",
    "maxspeed:type": "HU:urban",
    "name": "Csány László tér",
    "oneway": "yes",
    "sidewalk:right": "separate",
    "surface": "asphalt"
  }
},
{
  "type": "way",
  "id": 31590247,
  "center": {
    "lat": 46.8396539,
    "lon": 16.8504198
  },
  "nodes": [
    353551834,
    2168904428,
    1776371067,
    353551835,
    2168904436,
    2168904441,
    11231014192
  ],
  "tags": {
    "highway": "residential",
    "name": "Rózsa liget",
    "old_name": "Béke-ligeti utca",
    "surface": "concrete"
  }
},
{
  "type": "way",
  "id": 31590256,
  "center": {
    "lat": 46.8405363,
    "lon": 16.8493262
  },
  "nodes": [
    353552705,
    11244761895,
    11244761894,
    11244761901,
    353553163,
    11244761889,
    1965651770,
    353553164
  ],
  "tags": {
    "highway": "residential",
    "name": "Petőfi Sándor utca"
  }
},
{
  "type": "way",
  "id": 31590262,
  "center": {
    "lat": 46.8433450,
    "lon": 16.8460703
  },
  "nodes": [
    353549955,
    1711770892,
    8914210161,
    2323990752
  ],
  "tags": {
    "highway": "residential",
    "lanes": "1",
    "lit": "yes",
    "maxspeed": "50",
    "maxspeed:type": "HU:urban",
    "name": "Berzsenyi Dániel utca",
    "oneway": "yes",
    "sidewalk": "both",
    "surface": "paving_stones"
  }
},
{
  "type": "way",
  "id": 31590264,
  "center": {
    "lat": 46.8474271,
    "lon": 16.8442022
  },
  "nodes": [
    516393369,
    13515648071,
    13515648072,
    611810597
  ],
  "tags": {
    "highway": "residential",
    "lanes": "3",
    "lanes:backward": "2",
    "lanes:forward": "1",
    "lit": "yes",
    "maxspeed": "50",
    "maxspeed:type": "HU:urban",
    "name": "Munkácsy Mihály utca",
    "sidewalk": "both",
    "surface": "asphalt",
    "turn:lanes:backward": "left|right"
  }
},
{
  "type": "way",
  "id": 31590267,
  "center": {
    "lat": 46.8371027,
    "lon": 16.8439098
  },
  "nodes": [
    353565779,
    1711770549,
    13573997467,
    525443384
  ],
  "tags": {
    "highway": "residential",
    "lanes": "2",
    "name": "Ady Endre utca",
    "oneway": "no",
    "surface": "asphalt"
  }
},
{
  "type": "way",
  "id": 31590269,
  "center": {
    "lat": 46.8414258,
    "lon": 16.8457480
  },
  "nodes": [
    353560287,
    1711770652
  ],
  "tags": {
    "highway": "residential",
    "lanes": "2",
    "name": "Kisfaludy Sándor utca",
    "surface": "asphalt"
  }
},
{
  "type": "way",
  "id": 31590271,
  "center": {
    "lat": 46.8441366,
    "lon": 16.8447015
  },
  "nodes": [
    1827044607,
    11263670419,
    2173893661,
    1827044605,
    2173893673,
    1827044570
  ],
  "tags": {
    "highway": "residential",
    "name": "Iskola köz",
    "oneway": "yes",
    "surface": "paving_stones"
  }
},
{
  "type": "way",
  "id": 31590279,
  "center": {
    "lat": 46.8399678,
    "lon": 16.8509328
  },
  "nodes": [
    353551836,
    12847550426,
    12847550425,
    2168904430
  ],
  "tags": {
    "highway": "residential",
    "name": "Wlassics Gyula utca",
    "surface": "asphalt"
  }
},
{
  "type": "way",
  "id": 31590280,
  "center": {
    "lat": 46.8355270,
    "lon": 16.8529165
  },
  "nodes": [
    353569786,
    12587143368,
    353569287
  ],
  "tags": {
    "highway": "residential",
    "lane_markings": "no",
    "name": "Szegfű utca",
    "oneway": "yes",
    "parking:left": "yes",
    "parking:right": "no",
    "surface": "asphalt"
  }
},
{
  "type": "way",
  "id": 31590288,
  "center": {
    "lat": 46.8405991,
    "lon": 16.8533026
  },
  "nodes": [
    353569877,
    353556927
  ],
  "tags": {
    "highway": "residential",
    "name": "Fenyő utca",
    "surface": "asphalt"
  }
},
{
  "type": "way",
  "id": 31590292,
  "center": {
    "lat": 46.8358221,
    "lon": 16.8511826
  },
  "nodes": [
    353556784,
    12587143365,
    353557928,
    353566019,
    353569196,
    353569197,
    2168758336,
    353573035,
    353573493,
    2168755878,
    353573036,
    1776384191,
    353573037,
    1776384188,
    2168755863,
    2168755885,
    2168755870,
    353573038,
    6183248348,
    353573039,
    353573041
  ],
  "tags": {
    "highway": "residential",
    "lane_markings": "no",
    "name": "Honvéd utca",
    "surface": "asphalt"
  }
},
{
  "type": "way",
  "id": 31590294,
  "center": {
    "lat": 46.8361733,
    "lon": 16.8523507
  },
  "nodes": [
    353569877,
    12587143357,
    353556785,
    12587143358,
    353558031,
    353566081,
    353569285,
    353569287,
    365729205,
    2169457176,
    2169457165,
    2169457167,
    353572851,
    12587143377
  ],
  "tags": {
    "highway": "residential",
    "lanes": "2",
    "name": "Kinizsi Pál utca",
    "surface": "asphalt"
  }
},
{
  "type": "way",
  "id": 31590305,
  "center": {
    "lat": 46.8393221,
    "lon": 16.8510200
  },
  "nodes": [
    365739642,
    353558758,
    1776371068,
    353558759,
    2168557526,
    2168557604,
    353558760,
    6166795792
  ],
  "tags": {
    "highway": "residential",
    "lane_markings": "no",
    "name": "Bíró Márton utca",
    "oneway": "yes",
    "surface": "asphalt"
  }
},
{
  "type": "way",
  "id": 31590317,
  "center": {
    "lat": 46.8452640,
    "lon": 16.8321433
  },
  "nodes": [
    9705354237,
    2183135962,
    2183136019,
    2183136044,
    10812780337,
    2183716083,
    2183716082,
    3910438014
  ],
  "tags": {
    "cycleway:both": "no",
    "highway": "tertiary",
    "lanes": "2",
    "lit": "yes",
    "maxspeed": "50",
    "maxspeed:type": "HU:urban",
    "name": "Gasparich Márk utca",
    "ref": "74103",
    "sidewalk": "separate",
    "surface": "asphalt"
  }
},
{
  "type": "way",
  "id": 31590319,
  "center": {
    "lat": 46.8435017,
    "lon": 16.8356117
  },
  "nodes": [
    2183716082,
    353560877,
    353563598,
    353562968,
    12124273311,
    2173841155,
    12124273312,
    12124273313,
    353560763
  ],
  "tags": {
    "highway": "residential",
    "lane_markings": "no",
    "lit": "yes",
    "name": "Lőrinc barát utca",
    "sidewalk": "both",
    "surface": "asphalt"
  }
},
{
  "type": "way",
  "id": 31590376,
  "center": {
    "lat": 46.8463957,
    "lon": 16.8402938
  },
  "nodes": [
    353561963,
    2183406368,
    516393342
  ],
  "tags": {
    "highway": "residential",
    "lanes": "1",
    "name": "Kert utca",
    "oneway": "yes"
  }
},
{
  "type": "way",
  "id": 31590378,
  "center": {
    "lat": 46.8440265,
    "lon": 16.8365232
  },
  "nodes": [
    353561579,
    353563597,
    353562969,
    2173841152,
    2173858183
  ],
  "tags": {
    "highway": "residential",
    "name": "Batsányi János utca"
  }
},
{
  "type": "way",
  "id": 31590381,
  "center": {
    "lat": 46.8419791,
    "lon": 16.8354445
  },
  "nodes": [
    353563012,
    2173841151,
    2183227335,
    353562646,
    12124256998,
    12124273203,
    12124273207,
    353563600,
    353562648
  ],
  "tags": {
    "highway": "residential",
    "name": "Mikes Kelemen utca",
    "surface": "asphalt"
  }
},
{
  "type": "way",
  "id": 31590383,
  "center": {
    "lat": 46.8432006,
    "lon": 16.8369093
  },
  "nodes": [
    353560768,
    12124273257,
    2183227340,
    2173858177,
    2173858184,
    2173858175,
    2173858176,
    2173858180,
    353562965,
    353562646,
    353562967,
    353562968,
    353562969,
    353562970,
    381104338,
    9768124524,
    353562971
  ],
  "tags": {
    "highway": "residential",
    "maxweight": "7.5",
    "name": "Jókai Mór utca",
    "sidewalk": "both",
    "surface": "asphalt"
  }
},
{
  "type": "way",
  "id": 31590384,
  "center": {
    "lat": 46.8439010,
    "lon": 16.8350430
  },
  "nodes": [
    353563125,
    8432689949,
    381107496,
    353563595,
    353563597,
    353563598,
    353563599,
    353563600,
    2173858181,
    2173858185
  ],
  "tags": {
    "highway": "residential",
    "lit": "yes",
    "name": "Dózsa György utca",
    "sidewalk": "both",
    "surface": "asphalt"
  }
},
{
  "type": "way",
  "id": 31590385,
  "center": {
    "lat": 46.8391927,
    "lon": 16.8412390
  },
  "nodes": [
    353564160,
    353564159,
    2173924296,
    2173924302,
    368241894,
    353563790
  ],
  "tags": {
    "highway": "residential",
    "lane_markings": "no",
    "name": "Vörösmarty Mihály utca",
    "oneway": "yes",
    "surface": "asphalt"
  }
},
{
  "type": "way",
  "id": 31590393,
  "center": {
    "lat": 46.8381551,
    "lon": 16.8406992
  },
  "nodes": [
    353563791,
    12101432457,
    2940163086,
    353565579,
    3778397662,
    2178598483,
    12112762839,
    353565581
  ],
  "tags": {
    "highway": "residential",
    "name": "Botfy Lajos utca",
    "oneway": "yes",
    "surface": "asphalt"
  }
},
{
  "type": "way",
  "id": 31590396,
  "center": {
    "lat": 46.8387197,
    "lon": 16.8526021
  },
  "nodes": [
    353557548,
    12587143362,
    353558031,
    353557928
  ],
  "tags": {
    "highway": "residential",
    "name": "Baráth Ferenc utca",
    "old_name": "Varga Gábor utca",
    "surface": "asphalt"
  }
},
{
  "type": "way",
  "id": 31590399,
  "center": {
    "lat": 46.8376147,
    "lon": 16.8523871
  },
  "nodes": [
    353565948,
    353566019,
    353566081,
    2168860752,
    12587143364,
    353566137,
    12587143363,
    12587143383,
    365761944,
    353567014
  ],
  "tags": {
    "highway": "residential",
    "lane_markings": "no",
    "name": "Farkas Dávid utca",
    "surface": "asphalt"
  }
},
{
  "type": "way",
  "id": 31590400,
  "center": {
    "lat": 46.8423271,
    "lon": 16.8524712
  },
  "nodes": [
    353567154,
    3882071011,
    11263670383,
    2164379475,
    2164379478
  ],
  "tags": {
    "highway": "residential",
    "name": "Bethlen Gábor utca"
  }
},
{
  "type": "way",
  "id": 31590404,
  "center": {
    "lat": 46.8438323,
    "lon": 16.8530442
  },
  "nodes": [
    353557409,
    2164379486,
    2165748695
  ],
  "tags": {
    "highway": "residential",
    "lit": "yes",
    "name": "Kinizsi Pál utca",
    "smoothness": "good",
    "surface": "asphalt"
  }
},
{
  "type": "way",
  "id": 31590415,
  "center": {
    "lat": 46.8435523,
    "lon": 16.8539583
  },
  "nodes": [
    353567915,
    11263670397,
    2164379486
  ],
  "tags": {
    "highway": "residential",
    "name": "Toldi Miklós utca"
  }
},
{
  "type": "way",
  "id": 31590418,
  "center": {
    "lat": 46.8429310,
    "lon": 16.8533256
  },
  "nodes": [
    381292969,
    2164379488,
    2164285548,
    2164285537,
    353568775
  ],
  "tags": {
    "highway": "residential",
    "name": "Bocskai István utca"
  }
},
{
  "type": "way",
  "id": 31590492,
  "center": {
    "lat": 46.8364283,
    "lon": 16.8511649
  },
  "nodes": [
    365760056,
    365760414,
    12587143367,
    353569787,
    12587143366,
    353569285,
    353569196,
    353569134
  ],
  "tags": {
    "highway": "residential",
    "lane_markings": "no",
    "name": "Radnóti Miklós utca",
    "surface": "asphalt"
  }
},
{
  "type": "way",
  "id": 31590499,
  "center": {
    "lat": 46.8354966,
    "lon": 16.8503729
  },
  "nodes": [
    353569135,
    353569197,
    12587143369,
    353569287
  ],
  "tags": {
    "highway": "residential",
    "name": "Szegfű utca",
    "surface": "asphalt"
  }
},
{
  "type": "way",
  "id": 31590517,
  "center": {
    "lat": 46.8316145,
    "lon": 16.8517128
  },
  "nodes": [
    353574073,
    2169055300,
    2169055285,
    2169055296,
    1776384166,
    1776384177,
    2169067165,
    353573041,
    11240330582,
    2169055286,
    2169055302,
    12587143376,
    353572851,
    12587143375,
    2169457177,
    12587143379,
    353573240
  ],
  "tags": {
    "highway": "residential",
    "name": "Holub József utca"
  }
},
{
  "type": "way",
  "id": 31590761,
  "center": {
    "lat": 46.8346296,
    "lon": 16.8504715
  },
  "nodes": [
    353573492,
    353573493,
    12587143370,
    365729205
  ],
  "tags": {
    "highway": "residential",
    "name": "Kazinczy Ferenc utca"
  }
},
{
  "type": "way",
  "id": 31590772,
  "center": {
    "lat": 46.8340336,
    "lon": 16.8497864
  },
  "nodes": [
    353573037,
    353573483
  ],
  "tags": {
    "created_by": "Potlatch 0.10f",
    "highway": "residential",
    "name": "Margaréta utca"
  }
},
{
  "type": "way",
  "id": 31590818,
  "center": {
    "lat": 46.8334510,
    "lon": 16.8497298
  },
  "nodes": [
    353573038,
    353573495
  ],
  "tags": {
    "created_by": "Potlatch 0.10f",
    "highway": "residential",
    "name": "Tulipán utca"
  }
},
{
  "type": "way",
  "id": 31590910,
  "center": {
    "lat": 46.8326442,
    "lon": 16.8498037
  },
  "nodes": [
    353573039,
    2169049666,
    1776384185,
    2169055288,
    353573496
  ],
  "tags": {
    "highway": "residential",
    "name": "Gönczy Ferenc utca"
  }
},
{
  "type": "way",
  "id": 32521818,
  "center": {
    "lat": 46.8372574,
    "lon": 16.8548874
  },
  "nodes": [
    353557831,
    353556788,
    353557833,
    2168730566,
    353567014,
    353566342,
    2168875361,
    353566344,
    11247043611,
    11247043619,
    2168875384,
    2168875385,
    353573425,
    11242466520,
    11244761836,
    353573427,
    11244761822,
    2169457180,
    12587143381
  ],
  "tags": {
    "highway": "residential",
    "name": "Baross Gábor utca",
    "surface": "asphalt"
  }
},
{
  "type": "way",
  "id": 32523215,
  "center": {
    "lat": 46.8402557,
    "lon": 16.8520768
  },
  "nodes": [
    365739642,
    11244761903,
    2168557561,
    365739805,
    7771588995,
    7771588994,
    2168557606,
    353569877
  ],
  "tags": {
    "access": "destination",
    "highway": "residential",
    "name": "Avasárok utca",
    "surface": "asphalt"
  }
},
{
  "type": "way",
  "id": 32524440,
  "center": {
    "lat": 46.8333131,
    "lon": 16.8498127
  },
  "nodes": [
    353565953,
    11244749032,
    353569134,
    2168968814,
    353569135,
    2168758335,
    353569136,
    353569137,
    2168755842,
    353573492,
    2168755840,
    2168755856,
    353573483,
    353573495,
    353573496,
    2169055295,
    2169055287,
    1776384181,
    2169055289,
    7771553768,
    353573486,
    11240330565,
    11240330564,
    353574073,
    11240330562,
    2169055292,
    2169055297,
    2169055298,
    2169055281,
    353573487,
    7779771889,
    7779771890,
    353573488
  ],
  "tags": {
    "highway": "residential",
    "lanes": "2",
    "name": "Juhász Gyula utca",
    "surface": "asphalt"
  }
},
{
  "type": "way",
  "id": 32525900,
  "center": {
    "lat": 46.8454488,
    "lon": 16.8538493
  },
  "nodes": [
    365765809,
    11772091026,
    2164285410,
    11772091027,
    9705354230
  ],
  "tags": {
    "agricultural": "no",
    "bicycle": "no",
    "carriage": "no",
    "embankment": "yes",
    "highway": "primary",
    "lanes": "4",
    "lit": "yes",
    "maxspeed": "70",
    "maxspeed:type": "sign",
    "name": "Balatoni út",
    "parking:both:restriction": "no_stopping",
    "priority_road": "yes",
    "ref": "762",
    "sidewalk": "separate",
    "surface": "asphalt"
  }
},
{
  "type": "way",
  "id": 32525901,
  "center": {
    "lat": 46.8454486,
    "lon": 16.8562144
  },
  "nodes": [
    365765820,
    2164285484,
    2164285522,
    7237087492,
    365765809
  ],
  "tags": {
    "agricultural": "no",
    "bicycle": "no",
    "bridge": "yes",
    "carriage": "no",
    "highway": "primary",
    "lanes": "4",
    "layer": "1",
    "lit": "yes",
    "maxspeed": "70",
    "maxspeed:type": "sign",
    "name": "Balatoni út",
    "parking:both:restriction": "no_stopping",
    "priority_road": "yes",
    "ref": "762",
    "sidewalk": "separate",
    "surface": "asphalt"
  }
},
{
  "type": "way",
  "id": 32526031,
  "center": {
    "lat": 46.8408832,
    "lon": 16.8795853
  },
  "nodes": [
    2904548496,
    2169206569,
    2904541918,
    276989683
  ],
  "tags": {
    "cycleway:both": "no",
    "foot": "no",
    "highway": "primary",
    "lanes": "3",
    "lanes:backward": "2",
    "lanes:forward": "1",
    "lit": "yes",
    "maxspeed": "50",
    "maxspeed:type": "HU:urban",
    "name": "Balatoni út",
    "priority_road": "yes",
    "ref": "76",
    "shoulder": "no",
    "sidewalk": "no",
    "surface": "asphalt",
    "turn:lanes:backward": "left|through;right"
  }
},
{
  "type": "way",
  "id": 32526126,
  "center": {
    "lat": 46.8448602,
    "lon": 16.8608265
  },
  "nodes": [
    331964846,
    2323990771
  ],
  "tags": {
    "agricultural": "no",
    "bicycle": "no",
    "carriage": "no",
    "highway": "primary",
    "lanes": "2",
    "lit": "yes",
    "maxspeed": "50",
    "maxspeed:type": "HU:urban",
    "name": "Balatoni út",
    "parking:both:restriction": "no_stopping",
    "priority_road": "yes",
    "ref": "762",
    "sidewalk": "separate",
    "surface": "asphalt"
  }
},
{
  "type": "way",
  "id": 32526160,
  "center": {
    "lat": 46.8449724,
    "lon": 16.8617780
  },
  "nodes": [
    3016245210,
    1776504801,
    365768234
  ],
  "tags": {
    "cycleway:right": "no",
    "highway": "unclassified",
    "lanes": "1",
    "lit": "yes",
    "maxspeed": "50",
    "maxspeed:type": "HU:urban",
    "name": "Parkerdei út",
    "oneway": "yes",
    "sidewalk:right": "separate",
    "surface": "asphalt"
  }
},
{
  "type": "way",
  "id": 32526169,
  "center": {
    "lat": 46.8451505,
    "lon": 16.8617817
  },
  "nodes": [
    365768234,
    2323990786
  ],
  "tags": {
    "highway": "unclassified",
    "lanes": "2",
    "lit": "yes",
    "maxspeed": "50",
    "maxspeed:type": "HU:urban",
    "name": "Parkerdei út",
    "sidewalk:right": "separate",
    "surface": "asphalt"
  }
},
{
  "type": "way",
  "id": 32526343,
  "center": {
    "lat": 46.8446617,
    "lon": 16.8555048
  },
  "nodes": [
    381368727,
    2164285437,
    1776371084,
    1776371085
  ],
  "tags": {
    "highway": "residential",
    "lit": "yes",
    "name": "Október 6. tér",
    "surface": "asphalt"
  }
},
{
  "type": "way",
  "id": 32725455,
  "center": {
    "lat": 46.8414530,
    "lon": 16.8536257
  },
  "nodes": [
    368239553,
    2168557586,
    353556928
  ],
  "tags": {
    "highway": "footway",
    "name": "Avasárok utca"
  }
},
{
  "type": "way",
  "id": 32725458,
  "center": {
    "lat": 46.8409146,
    "lon": 16.8530245
  },
  "nodes": [
    353569877,
    2168557523,
    2168557511,
    2168557482,
    368239574,
    2168557549,
    368239553
  ],
  "tags": {
    "highway": "residential",
    "name": "Avasárok utca",
    "surface": "asphalt"
  }
},
{
  "type": "way",
  "id": 32725622,
  "center": {
    "lat": 46.8402378,
    "lon": 16.8428822
  },
  "nodes": [
    353563789,
    12124273238,
    12124273236,
    353555509,
    12124273237,
    2173873774,
    12112762828,
    353555772,
    1774563657,
    2172075465,
    1711770598,
    12112762813,
    1711770609,
    353559244
  ],
  "tags": {
    "highway": "residential",
    "lanes": "2",
    "name": "Petőfi Sándor utca",
    "oneway": "no",
    "surface": "asphalt"
  }
},
{
  "type": "way",
  "id": 32726077,
  "center": {
    "lat": 46.8407586,
    "lon": 16.8315777
  },
  "nodes": [
    368243702,
    12101432435,
    11709241226,
    12101432427,
    368243780,
    3910437940,
    1745295722,
    368243781,
    2178817468,
    2178817503,
    368243782,
    2178817490
  ],
  "tags": {
    "highway": "residential",
    "lanes": "2",
    "lit": "yes",
    "maxspeed": "50",
    "name": "Landorhegyi út"
  }
},
{
  "type": "way",
  "id": 32726088,
  "center": {
    "lat": 46.8379001,
    "lon": 16.8274394
  },
  "nodes": [
    368247245,
    2178817484,
    368247288,
    2178817492,
    2178817467,
    368247289,
    2178817495,
    6004822085,
    9002040055,
    368247291,
    368247292,
    2178817504,
    2178817489,
    368247293,
    368247294,
    2178817469,
    2178817479,
    368243856,
    2178817486,
    6004822088,
    2178817496,
    368243857,
    2178817497,
    2182330449,
    368243858,
    2178817501,
    368243859,
    2178817498,
    2178817474,
    368243860,
    2178817494,
    2178817511,
    368243861,
    2178817507,
    368243862,
    9738203980,
    368245582,
    368243863,
    2178817483,
    9724402065,
    368243864,
    2178817465,
    368243811
  ],
  "tags": {
    "highway": "residential",
    "name": "Madách Imre utca"
  }
},
{
  "type": "way",
  "id": 32726094,
  "center": {
    "lat": 46.8406437,
    "lon": 16.8272720
  },
  "nodes": [
    381421507,
    2178828784,
    2178828826,
    2178828828,
    2180430838,
    2178828796,
    381422564,
    2180430833,
    2178828834,
    2178828864,
    381422569,
    2180430840,
    2178828792,
    9002037697,
    2178828849,
    2178828833,
    2185799888,
    368243906,
    2185799957,
    368243907,
    2182029415,
    368243909,
    368243911,
    368243913,
    2182029411,
    1302719844,
    3910437982,
    3910437989,
    2183773748,
    3910438003,
    2183773765
  ],
  "tags": {
    "cycleway:both": "no",
    "highway": "tertiary",
    "lanes": "2",
    "lit": "yes",
    "maxspeed": "50",
    "maxspeed:type": "HU:urban",
    "name": "Gasparich Márk utca",
    "ref": "74103",
    "sidewalk": "separate",
    "surface": "asphalt"
  }
},
{
  "type": "way",
  "id": 32726098,
  "center": {
    "lat": 46.8403189,
    "lon": 16.8286204
  },
  "nodes": [
    368243911,
    1776361619,
    1776361617,
    1776361616,
    368243943
  ],
  "tags": {
    "highway": "residential",
    "name": "Puskás Tivadar utca"
  }
},
{
  "type": "way",
  "id": 32726145,
  "center": {
    "lat": 46.8378494,
    "lon": 16.8316639
  },
  "nodes": [
    368243811,
    3910437919,
    2178711226,
    3910437920,
    3765513967,
    2178709302,
    368243865,
    2178709294,
    2178709299,
    2178758992,
    2178709300,
    381430141,
    527774106,
    13573997485,
    2178768195
  ],
  "tags": {
    "cycleway:both": "lane",
    "cycleway:both:lane": "advisory",
    "highway": "residential",
    "name": "Déryné utca",
    "surface": "asphalt"
  }
},
{
  "type": "way",
  "id": 32726186,
  "center": {
    "lat": 46.8374684,
    "lon": 16.8374835
  },
  "nodes": [
    368245113,
    2173924293,
    2173924308
  ],
  "tags": {
    "highway": "tertiary_link",
    "lanes": "1",
    "lit": "yes",
    "maxspeed": "50",
    "maxspeed:type": "HU:urban",
    "name": "Platán sor",
    "oneway": "yes",
    "sidewalk:right": "separate",
    "surface": "asphalt"
  }
},
{
  "type": "way",
  "id": 32726216,
  "center": {
    "lat": 46.8358356,
    "lon": 16.8267732
  },
  "nodes": [
    381451637,
    2178785913,
    2178785866,
    2178785882,
    368247113,
    9002047200,
    2178785859,
    381446535,
    2178785883,
    2178785907,
    2178785894,
    2178785915,
    11263670791,
    368247116,
    2178785880,
    2178785878,
    9005219710,
    368247118
  ],
  "tags": {
    "highway": "residential",
    "name": "Kispest utca"
  }
},
{
  "type": "way",
  "id": 32726341,
  "center": {
    "lat": 46.8342021,
    "lon": 16.8285047
  },
  "nodes": [
    3910436356,
    13525287200,
    2180343002,
    3910436353,
    1747771814,
    13525287195,
    368247399
  ],
  "tags": {
    "highway": "residential",
    "name": "Csertán Sándor utca"
  }
},
{
  "type": "way",
  "id": 32726420,
  "center": {
    "lat": 46.8332901,
    "lon": 16.8255215
  },
  "nodes": [
    368247118,
    368247321,
    368247323,
    2178797776,
    368247973,
    2180366251,
    2178797772,
    2178797758,
    2178797778,
    368247974,
    2178797749,
    2178797718,
    2178797780,
    368247975,
    2178797725,
    368247976,
    2178797732,
    2940163085,
    368247977,
    2178797715,
    368247978,
    2178797743,
    368247979,
    368247980,
    2178797727,
    2178797763,
    2178797757,
    2178797774,
    368250024,
    2178797752,
    368250555,
    2178797765,
    2178797730,
    368250026,
    2180343004,
    368250027
  ],
  "tags": {
    "highway": "residential",
    "name": "Kodály Zoltán utca"
  }
},
{
  "type": "way",
  "id": 32726437,
  "center": {
    "lat": 46.8358387,
    "lon": 16.8249716
  },
  "nodes": [
    368247982,
    368248050,
    2180372716,
    368248051,
    2180372749
  ],
  "tags": {
    "highway": "residential",
    "name": "Ősz utca"
  }
},
{
  "type": "way",
  "id": 32726464,
  "center": {
    "lat": 46.8346925,
    "lon": 16.8232230
  },
  "nodes": [
    381422558,
    368248364,
    368248365,
    368248366,
    2185933710,
    2185843052,
    368248367,
    2185843058,
    2185843065,
    2185843027,
    368248368,
    2185843118,
    3093595194,
    2185843033,
    368248369,
    368248370,
    2185843046,
    368248372,
    368248374,
    368248378,
    2187491261,
    2187491376,
    368248382,
    2187491470,
    368248383,
    2187491290,
    368248384,
    2187491508,
    368248385,
    2178797722,
    2178797737,
    368250298,
    2178797768,
    2178797741,
    4391838144,
    4391838143,
    368250655,
    2178797779,
    2178797736,
    2178797777,
    368250654
  ],
  "tags": {
    "highway": "residential",
    "name": "Szívhegyi út"
  }
},
{
  "type": "way",
  "id": 32726704,
  "center": {
    "lat": 46.8349922,
    "lon": 16.8226710
  },
  "nodes": [
    368248059,
    2180372747,
    368249894
  ],
  "tags": {
    "highway": "residential",
    "name": "Hegyoldal utca",
    "sidewalk": "no",
    "surface": "concrete"
  }
},
{
  "type": "way",
  "id": 32726717,
  "center": {
    "lat": 46.8323497,
    "lon": 16.8276722
  },
  "nodes": [
    368250027,
    13577465652,
    2178810234,
    8960731303,
    368250190,
    368250189,
    8960771022,
    368250188,
    9707596948,
    8960731304,
    9707596949,
    2178768167,
    368250118
  ],
  "tags": {
    "cycleway:both": "no",
    "highway": "secondary",
    "lanes": "2",
    "lit": "yes",
    "maxspeed": "50",
    "maxspeed:type": "HU:urban",
    "name": "Göcseji út",
    "ref": "7403",
    "sidewalk:left": "separate",
    "sidewalk:right": "no",
    "surface": "asphalt"
  }
},
{
  "type": "way",
  "id": 32726728,
  "center": {
    "lat": 46.8310959,
    "lon": 16.8208970
  },
  "nodes": [
    368250298,
    11265516517,
    2178797748,
    2178797775,
    368250299,
    2178797764,
    2178797771,
    368250301,
    2178797729,
    368250302,
    2178797747,
    368250303,
    2178797760,
    2178797726,
    368250305,
    2178797739,
    11265516503,
    11265516502,
    368250306,
    2178797742,
    11265516501,
    2178797733,
    368250308,
    2178797728,
    2178797766,
    2178797756,
    2178797745,
    368250309,
    11265516555,
    2178797751,
    11265516554,
    2178797746,
    368251619
  ],
  "tags": {
    "highway": "residential",
    "name": "Belsőszeg utca"
  }
},
{
  "type": "way",
  "id": 32726859,
  "center": {
    "lat": 46.8310122,
    "lon": 16.8232594
  },
  "nodes": [
    368250026,
    2178797759,
    2178797738,
    368250652,
    2178797734,
    2178797731,
    368250653,
    2178797723,
    368250715,
    2178797755,
    368250654,
    368250672,
    2178797773,
    2178797750,
    368250673,
    2178797769,
    2178797720,
    368250674,
    2178797761,
    2178797724,
    2178797754,
    368250675,
    2178797770,
    2178797767,
    368250676,
    2178797721,
    2178797744,
    368251930,
    2178797740,
    368251931,
    368251619
  ],
  "tags": {
    "highway": "residential",
    "name": "Hóvirág utca"
  }
},
{
  "type": "way",
  "id": 32726885,
  "center": {
    "lat": 46.8307026,
    "lon": 16.8258894
  },
  "nodes": [
    368250027,
    12347715909,
    368250193,
    368250194,
    2178810213,
    368250196,
    2178810150,
    2183358025,
    368251576,
    2178810148,
    368251577,
    2178810166,
    368251578,
    2178810205,
    2185972456,
    2178810249,
    368251579,
    2178810254
  ],
  "tags": {
    "cycleway:both": "no",
    "highway": "secondary",
    "lanes": "2",
    "lit": "yes",
    "maxspeed": "50",
    "maxspeed:type": "HU:urban",
    "name": "Becsali út",
    "ref": "7403",
    "sidewalk:left": "no",
    "sidewalk:right": "separate",
    "surface": "asphalt"
  }
},
{
  "type": "way",
  "id": 32726900,
  "center": {
    "lat": 46.8333842,
    "lon": 16.8285897
  },
  "nodes": [
    368250118,
    276097273,
    11263670784,
    11263670785,
    2178768175,
    1453521600,
    11263670792,
    276097274,
    2178768150,
    368247399
  ],
  "tags": {
    "bicycle": "no",
    "destination:forward": "Centrum",
    "highway": "secondary",
    "lanes": "2",
    "lit": "yes",
    "maxspeed": "50",
    "maxspeed:type": "HU:urban",
    "name": "Göcseji út",
    "ref": "7401",
    "sidewalk": "right",
    "surface": "asphalt"
  }
},
{
  "type": "way",
  "id": 32727316,
  "center": {
    "lat": 46.8240083,
    "lon": 16.8276414
  },
  "nodes": [
    368256723,
    2183402547,
    2172133733,
    368256725,
    2180342203,
    8960732730
  ],
  "tags": {
    "highway": "residential",
    "name": "Izzó utca",
    "sidewalk": "no",
    "surface": "asphalt"
  }
},
{
  "type": "way",
  "id": 32727318,
  "center": {
    "lat": 46.8252564,
    "lon": 16.8247573
  },
  "nodes": [
    368251991,
    13577465659,
    2172133690,
    2172133715,
    2172133692,
    368256740,
    368256742,
    2172133707,
    368256744,
    2172133730,
    2172133696,
    368256746,
    368256748,
    2172133705,
    368256749,
    368256751,
    2172133717,
    368256752,
    368256754,
    2183402578,
    368256756,
    2172133691,
    368256757,
    2201964673,
    368256759,
    368256760,
    2183402573,
    368256723
  ],
  "tags": {
    "highway": "residential",
    "name": "Gyümölcsös utca",
    "surface": "asphalt"
  }
},
{
  "type": "way",
  "id": 32727330,
  "center": {
    "lat": 46.8224755,
    "lon": 16.8187290
  },
  "nodes": [
    2178810164,
    2178810260,
    368257118,
    13577465670,
    2178810211,
    13577465669,
    13376247098,
    13376247097,
    368257120,
    2178810193,
    2178810250,
    368257121,
    13577465665,
    2178810173,
    368257123,
    13376247096,
    2178810197,
    2178810207,
    13376247099,
    368257124,
    2178810224,
    13577465664,
    368257125
  ],
  "tags": {
    "cycleway:both": "no",
    "highway": "secondary",
    "lanes": "2",
    "lit": "yes",
    "maxspeed": "30",
    "maxspeed:type": "sign",
    "name": "Becsali út",
    "ref": "7403",
    "sidewalk": "no",
    "surface": "asphalt"
  }
},
{
  "type": "way",
  "id": 32727394,
  "center": {
    "lat": 46.8231591,
    "lon": 16.8290755
  },
  "nodes": [
    368257880,
    2172133709,
    2172133716,
    368258591,
    2172133739,
    2172133719,
    368258593,
    368258596,
    11263670751,
    11263670753,
    1447224944
  ],
  "tags": {
    "highway": "tertiary",
    "lanes": "2",
    "lit": "yes",
    "maxspeed": "50",
    "maxspeed:type": "HU:urban",
    "name": "Köztársaság útja",
    "sidewalk": "separate",
    "surface": "asphalt"
  }
},
{
  "type": "way",
  "id": 32727422,
  "center": {
    "lat": 46.8218936,
    "lon": 16.8243955
  },
  "nodes": [
    368258819,
    368259226,
    2181417706,
    368259227,
    368259229,
    368259230,
    2181417739,
    368259231,
    2181417704,
    368259232,
    368259233,
    2181417674,
    2181417722,
    368259235,
    2181417741,
    368259236,
    2181417678,
    2181417702,
    368259237,
    368259238,
    2181417742,
    368259240,
    2181417729,
    368259241,
    2181417676,
    2181417658,
    368259242,
    2181417730,
    2181417683,
    1908958100,
    2181417698,
    1908958380,
    368259243,
    2181417731,
    2181417708,
    2181417700,
    2181417672,
    2201907522,
    368259245,
    2181417693,
    2181417656,
    2181417744,
    2181417670,
    2201907637,
    2181417669,
    2181417749,
    2178810245
  ],
  "tags": {
    "highway": "residential",
    "name": "Budai völgy",
    "surface": "asphalt"
  }
},
{
  "type": "way",
  "id": 32727475,
  "center": {
    "lat": 46.8209894,
    "lon": 16.8239138
  },
  "nodes": [
    1908958380,
    2181417668,
    1908958378,
    1908958376,
    1908958383,
    368260156
  ],
  "tags": {
    "highway": "residential",
    "name": "Budai völgy"
  }
},
{
  "type": "way",
  "id": 32727696,
  "center": {
    "lat": 46.8124865,
    "lon": 16.8224411
  },
  "nodes": [
    368264639,
    368264772
  ],
  "tags": {
    "highway": "residential",
    "name": "Azáleás utca",
    "smoothness": "intermediate",
    "surface": "compacted"
  }
},
{
  "type": "way",
  "id": 32727857,
  "center": {
    "lat": 46.8073029,
    "lon": 16.8075876
  },
  "nodes": [
    368267397,
    368268412,
    368268414,
    11256386881,
    368268415,
    368268416,
    11256386880,
    368268417,
    13376247002,
    368268419,
    368268420,
    13376247001,
    13577465680,
    368268421
  ],
  "tags": {
    "highway": "residential",
    "lanes": "1",
    "lit": "yes",
    "maxspeed": "50",
    "maxspeed:type": "HU:urban",
    "name": "Bazitai út",
    "sidewalk": "no",
    "surface": "asphalt"
  }
},
{
  "type": "way",
  "id": 32727983,
  "center": {
    "lat": 46.8343404,
    "lon": 16.8363162
  },
  "nodes": [
    2172115269,
    368313488,
    2172115197,
    2172115256,
    368313624,
    368314587,
    2172115172,
    2172115247,
    2172115297,
    368314588,
    368314590,
    368314591,
    2172115119,
    368314594,
    11244761954,
    368314596,
    2172115277,
    368314599,
    7881165658,
    7881165659,
    7881165660,
    11244761947,
    368314601,
    12771895539,
    368314603,
    2175649605,
    368314606
  ],
  "tags": {
    "highway": "residential",
    "lanes": "2",
    "lit": "yes",
    "maxspeed": "50",
    "maxspeed:type": "HU:urban",
    "name": "Átalszegett utca",
    "sidewalk": "separate",
    "surface": "asphalt"
  }
},
{
  "type": "way",
  "id": 32727994,
  "center": {
    "lat": 46.8246671,
    "lon": 16.8318260
  },
  "nodes": [
    368269737,
    2180331487,
    2181287284,
    13081886796,
    368270484,
    2172133731,
    368270487,
    1447224701,
    8962946650,
    1447224875,
    2172133693,
    368270489,
    368270492,
    2172133718,
    516349956,
    1447224667
  ],
  "tags": {
    "highway": "residential",
    "name": "Hegyalja utca"
  }
},
{
  "type": "way",
  "id": 32731316,
  "center": {
    "lat": 46.8304095,
    "lon": 16.8395181
  },
  "nodes": [
    368312622,
    2177628572,
    368312773
  ],
  "tags": {
    "highway": "residential",
    "name": "Fáy András utca"
  }
},
{
  "type": "way",
  "id": 32731342,
  "center": {
    "lat": 46.8293565,
    "lon": 16.8319300
  },
  "nodes": [
    368312347,
    2180312344,
    2180312330,
    368313085,
    2172115165,
    2172115166,
    368313086,
    2172115272,
    2172115293,
    11263670590,
    368313087,
    368313088,
    2172115303,
    368313089,
    368313090
  ],
  "tags": {
    "highway": "residential",
    "lanes": "2",
    "name": "Gyimesi utca",
    "surface": "asphalt"
  }
},
{
  "type": "way",
  "id": 32731344,
  "center": {
    "lat": 46.8304226,
    "lon": 16.8374466
  },
  "nodes": [
    368313092,
    2177583496,
    2177583681,
    2177583492,
    2177583561,
    368312493,
    2180245457,
    368313717,
    368313094,
    2172115309,
    11263670570,
    368313096,
    2172115083,
    2180190872,
    368313098,
    2172115264,
    368313099,
    2172115223,
    2172115139,
    2180171932,
    368313100,
    11263670072,
    2180171934,
    2180171931,
    368313101,
    2172115228,
    2385571773,
    368312347
  ],
  "tags": {
    "highway": "residential",
    "lane_markings": "no",
    "name": "Erkel Ferenc utca",
    "surface": "asphalt"
  }
},
{
  "type": "way",
  "id": 32731385,
  "center": {
    "lat": 46.8317625,
    "lon": 16.8344787
  },
  "nodes": [
    368313086,
    11263670591,
    11244761957,
    368313413,
    2174853062,
    2174853064,
    2174853071,
    368313416,
    2174853065,
    2174853069,
    11503141016,
    368313417,
    2174853066,
    2174853070,
    2174853067,
    2174853063,
    368313420,
    2174853074,
    368313423,
    2174853073,
    11267856141,
    2174853072,
    368313424,
    2172115102,
    368313427,
    2172115132,
    2172115226,
    368313430,
    2175859501,
    2172115182,
    2172115135,
    2172115181,
    11244761956,
    368313432,
    11244761945,
    368314587
  ],
  "tags": {
    "highway": "residential",
    "lanes": "2",
    "name": "Napsugár utca",
    "surface": "asphalt"
  }
},
{
  "type": "way",
  "id": 32731391,
  "center": {
    "lat": 46.8308977,
    "lon": 16.8325765
  },
  "nodes": [
    381537627,
    2172115212,
    2172115120,
    368313088,
    2172115208,
    2180139156,
    2180097698,
    368313484,
    2180097675,
    368313486,
    368313488
  ],
  "tags": {
    "highway": "residential",
    "lanes": "2",
    "name": "Balassi Bálint utca",
    "surface": "asphalt"
  }
},
{
  "type": "way",
  "id": 32731403,
  "center": {
    "lat": 46.8329022,
    "lon": 16.8329955
  },
  "nodes": [
    381532223,
    2172115290,
    368313486,
    2172115171,
    2172115163,
    368325896
  ],
  "tags": {
    "highway": "residential",
    "name": "Goldmark utca"
  }
},
{
  "type": "way",
  "id": 32731412,
  "center": {
    "lat": 46.8315578,
    "lon": 16.8345676
  },
  "nodes": [
    368313424,
    368313634,
    368313602
  ],
  "tags": {
    "highway": "residential",
    "name": "Stromfeld Aurél utca"
  }
},
{
  "type": "way",
  "id": 32731423,
  "center": {
    "lat": 46.8305372,
    "lon": 16.8367871
  },
  "nodes": [
    368313711,
    2385571736,
    368313726,
    2172115076,
    2172115232,
    2172115177,
    2172115091,
    11263670537,
    368313728,
    2172115209,
    368313717
  ],
  "tags": {
    "highway": "residential",
    "lane_markings": "no",
    "name": "Jászai Mari utca",
    "surface": "asphalt"
  }
},
{
  "type": "way",
  "id": 32731444,
  "center": {
    "lat": 46.8328380,
    "lon": 16.8343878
  },
  "nodes": [
    368313624,
    2172115234,
    2172115140,
    368313625,
    2172115159,
    2172115261,
    368313628,
    2172115078,
    2172115109,
    368313631,
    2172115298,
    2172115144,
    2172115238,
    368313634
  ],
  "tags": {
    "highway": "residential",
    "name": "Liszt Ferenc utca"
  }
},
{
  "type": "way",
  "id": 32731554,
  "center": {
    "lat": 46.8335538,
    "lon": 16.8385345
  },
  "nodes": [
    353574084,
    2174860502,
    2174860507,
    2174860506,
    2175649607,
    8963083275,
    368314603
  ],
  "tags": {
    "highway": "residential",
    "name": "Csendes utca"
  }
},
{
  "type": "way",
  "id": 32731567,
  "center": {
    "lat": 46.8362776,
    "lon": 16.8393112
  },
  "nodes": [
    368315295,
    11244762063,
    368315142,
    11244762065,
    11244762059,
    368315289
  ],
  "tags": {
    "highway": "residential",
    "name": "Hoffhalter Rudolf utca",
    "oneway": "yes"
  }
},
{
  "type": "way",
  "id": 32731691,
  "center": {
    "lat": 46.8372814,
    "lon": 16.8383208
  },
  "nodes": [
    368316480,
    13573997480,
    13573997481,
    2690965934
  ],
  "tags": {
    "highway": "residential",
    "lanes": "2",
    "lit": "yes",
    "maxspeed": "50",
    "maxspeed:type": "HU:urban",
    "name": "Závodszky István utca",
    "old_name": "Gorkij utca",
    "sidewalk": "no",
    "surface": "asphalt"
  }
},
{
  "type": "way",
  "id": 33476706,
  "center": {
    "lat": 46.8434887,
    "lon": 16.8326087
  },
  "nodes": [
    353562648,
    2173859075,
    2173859073,
    353562649,
    2173859076,
    353562650,
    2173859074,
    2173859077,
    353562651,
    2173859072,
    353560294,
    9738203999,
    9738203998,
    353560877
  ],
  "tags": {
    "highway": "residential",
    "lit": "yes",
    "name": "Gárdonyi Géza utca",
    "sidewalk": "right",
    "surface": "asphalt"
  }
},
{
  "type": "way",
  "id": 33477119,
  "center": {
    "lat": 46.8427274,
    "lon": 16.8356809
  },
  "nodes": [
    353560291,
    2181907214,
    2173841154,
    353562967,
    353563599,
    353560294
  ],
  "tags": {
    "highway": "residential",
    "lit": "yes",
    "name": "Püspöki Grácián utca",
    "sidewalk": "both",
    "surface": "asphalt"
  }
},
{
  "type": "way",
  "id": 33477848,
  "center": {
    "lat": 46.8449431,
    "lon": 16.8417354
  },
  "nodes": [
    381101935,
    3759281303,
    381103603,
    381102873,
    381101991
  ],
  "tags": {
    "highway": "residential",
    "lit": "yes",
    "name": "Kelemen Imre utca",
    "oneway": "yes",
    "oneway:bicycle": "no",
    "sidewalk": "left",
    "surface": "asphalt"
  }
},
{
  "type": "way",
  "id": 33478021,
  "center": {
    "lat": 46.8444662,
    "lon": 16.8410073
  },
  "nodes": [
    381102873,
    381103572
  ],
  "tags": {
    "highway": "residential",
    "name": "Flórián utca"
  }
},
{
  "type": "way",
  "id": 33478074,
  "center": {
    "lat": 46.8443221,
    "lon": 16.8420588
  },
  "nodes": [
    381103603,
    381104100,
    2171936397,
    2171936394,
    2171936396,
    2171936395,
    2173844569
  ],
  "tags": {
    "highway": "residential",
    "lit": "yes",
    "name": "Síp utca",
    "oneway": "yes",
    "sidewalk": "right",
    "surface": "asphalt"
  }
},
{
  "type": "way",
  "id": 33478352,
  "center": {
    "lat": 46.8455572,
    "lon": 16.8369867
  },
  "nodes": [
    381104338,
    381107496
  ],
  "tags": {
    "highway": "residential",
    "name": "Borbély György utca"
  }
},
{
  "type": "way",
  "id": 33478818,
  "center": {
    "lat": 46.8371069,
    "lon": 16.8458841
  },
  "nodes": [
    353549957,
    11263670068,
    11240330537,
    525436549,
    525436551,
    353548686
  ],
  "tags": {
    "highway": "tertiary",
    "lanes": "2",
    "lit": "yes",
    "maxspeed": "50",
    "maxspeed:type": "HU:urban",
    "name": "Csány László tér",
    "oneway": "yes",
    "sidewalk:left": "separate",
    "surface": "asphalt"
  }
},
{
  "type": "way",
  "id": 33478850,
  "center": {
    "lat": 46.8356565,
    "lon": 16.8465999
  },
  "nodes": [
    2904376020,
    2171673314,
    2171697790,
    353568858,
    2171697749,
    514764244,
    353568859
  ],
  "tags": {
    "highway": "tertiary",
    "lanes": "2",
    "lit": "yes",
    "maxspeed": "50",
    "maxspeed:type": "HU:urban",
    "name": "Zrínyi Miklós utca",
    "oneway": "no",
    "ref": "74601",
    "sidewalk": "separate",
    "surface": "asphalt"
  }
},
{
  "type": "way",
  "id": 33480425,
  "center": {
    "lat": 46.8424056,
    "lon": 16.8458602
  },
  "nodes": [
    353549955,
    1711770861,
    2171839581,
    2171839584,
    1255834613,
    1711770746,
    8913896436,
    2976953438,
    353560287
  ],
  "tags": {
    "highway": "tertiary",
    "lanes": "1",
    "lit": "yes",
    "maxspeed": "30",
    "maxspeed:type": "sign",
    "name": "Kossuth Lajos utca",
    "oneway": "yes",
    "segregated": "yes",
    "sidewalk": "separate",
    "surface": "paving_stones"
  }
},
{
  "type": "way",
  "id": 33485371,
  "center": {
    "lat": 46.8400460,
    "lon": 16.8508540
  },
  "nodes": [
    353551836,
    2168904432,
    2168904439
  ],
  "tags": {
    "highway": "residential",
    "name": "Bíró Márton utca",
    "surface": "asphalt"
  }
},
{
  "type": "way",
  "id": 33487135,
  "center": {
    "lat": 46.8436430,
    "lon": 16.8547481
  },
  "nodes": [
    353568775,
    2164285421,
    2164285555,
    2164285497,
    353567915,
    2164285433,
    1776371077,
    2164285576,
    11263670392,
    2168939652,
    1776371080,
    1776371082,
    11263670394,
    2164285402,
    353568776
  ],
  "tags": {
    "highway": "residential",
    "name": "Toldi Miklós utca"
  }
},
{
  "type": "way",
  "id": 33487489,
  "center": {
    "lat": 46.8466102,
    "lon": 16.8491640
  },
  "nodes": [
    381320400,
    2183520375,
    2901958133,
    2183520374,
    2183529137,
    2183520377,
    2183529104,
    2183520380,
    2904304836,
    2183518574
  ],
  "tags": {
    "highway": "residential",
    "name": "Kis utca",
    "oneway": "yes"
  }
},
{
  "type": "way",
  "id": 33487501,
  "center": {
    "lat": 46.8462101,
    "lon": 16.8470988
  },
  "nodes": [
    381324135,
    2904304827,
    1776313726,
    2164351901,
    11253925266,
    381324141,
    381324146,
    2901958135,
    381320400
  ],
  "tags": {
    "highway": "residential",
    "name": "Kölcsey Ferenc utca",
    "oneway": "yes"
  }
},
{
  "type": "way",
  "id": 33487586,
  "center": {
    "lat": 46.8505270,
    "lon": 16.8453760
  },
  "nodes": [
    385949138,
    1827044690
  ],
  "tags": {
    "bridge": "yes",
    "highway": "tertiary",
    "lanes": "2",
    "layer": "1",
    "lit": "yes",
    "maxspeed": "50",
    "maxspeed:type": "HU:urban",
    "name": "Batthyány Lajos utca",
    "sidewalk": "both",
    "start_date": "1952",
    "surface": "asphalt"
  }
},
{
  "type": "way",
  "id": 33489299,
  "center": {
    "lat": 46.8450003,
    "lon": 16.8362416
  },
  "nodes": [
    2183136019,
    13522960105,
    2183102147,
    353561851,
    2183102174,
    353563595,
    353562970,
    12216658524,
    2173841156,
    2173858173
  ],
  "tags": {
    "highway": "residential",
    "maxweight": "7.5",
    "name": "Virág Benedek utca",
    "sidewalk": "both",
    "surface": "asphalt"
  }
},
{
  "type": "way",
  "id": 33491545,
  "center": {
    "lat": 46.8340596,
    "lon": 16.8077511
  },
  "nodes": [
    525435070,
    2201763737,
    525435064,
    525435052,
    2201764054,
    525435042,
    525435039,
    2185933726,
    11265516625,
    12347806862,
    525435033,
    2185933734,
    2192433690,
    2185933669,
    525435024,
    2185933631,
    2192443076,
    525435013,
    2185933707,
    11265516630,
    525435000
  ],
  "tags": {
    "highway": "tertiary",
    "lane_markings": "no",
    "lanes": "2",
    "lit": "yes",
    "maxspeed": "50",
    "maxspeed:type": "HU:urban",
    "name": "Egerszeghegyi út",
    "ref": "74103",
    "sidewalk": "no",
    "surface": "asphalt"
  }
},
{
  "type": "way",
  "id": 33492139,
  "center": {
    "lat": 46.8318519,
    "lon": 16.8333247
  },
  "nodes": [
    368325896,
    2172115287,
    2172115096,
    2172115137,
    368313602,
    368313604,
    2172115250,
    2172115265,
    368313605,
    2172115221,
    368313606,
    2172115204,
    368313608,
    2172115148,
    2174853068,
    11263670317,
    368313609,
    368313484
  ],
  "tags": {
    "highway": "residential",
    "name": "Liszt Ferenc utca"
  }
},
{
  "type": "way",
  "id": 33492188,
  "center": {
    "lat": 46.8299050,
    "lon": 16.8308647
  },
  "nodes": [
    381532835,
    2180331561,
    2180331553,
    11267856155,
    381535528,
    2172115201,
    2172115145,
    2172115280,
    11263670622,
    368313089,
    11503141012,
    2172115259,
    2172115080,
    381540589,
    2172115113,
    2172115231,
    2172115189,
    2172115155,
    2172115230,
    2172115153,
    2172115122,
    2172115077,
    2172115305,
    2172115099,
    381532223,
    2172115074,
    2172115127,
    2172115147,
    11263670144,
    368313623
  ],
  "tags": {
    "highway": "residential",
    "lanes": "2",
    "lit": "yes",
    "maxspeed": "50",
    "name": "Erdész utca",
    "sidewalk": "separate",
    "source:maxspeed": "HU:urban",
    "surface": "asphalt"
  }
},
{
  "type": "way",
  "id": 33492223,
  "center": {
    "lat": 46.8278191,
    "lon": 16.8318308
  },
  "nodes": [
    381535528,
    11263670306,
    11263670316,
    381537627,
    11263670296,
    516350156,
    368269876
  ],
  "tags": {
    "highway": "residential",
    "lanes": "2",
    "name": "Fejér György utca",
    "surface": "asphalt"
  }
},
{
  "type": "way",
  "id": 33492300,
  "center": {
    "lat": 46.8330220,
    "lon": 16.8306491
  },
  "nodes": [
    368313616,
    2172115243,
    2172115154,
    2172115178,
    2172115271,
    2172115213,
    2172115199,
    381545099,
    11267856206,
    11267856207,
    2172115089,
    2183268701,
    2172115103,
    2172115187,
    2172115191,
    7553552426,
    2172115131,
    2178768135,
    381545106,
    2178768141,
    2172115266,
    11267856209,
    11267856208,
    2172115225,
    2172115111,
    2172115186,
    381545113,
    2172115110,
    2172115104,
    2172115121,
    2172115218,
    368313623
  ],
  "tags": {
    "highway": "living_street",
    "maxspeed": "20",
    "motor_vehicle": "destination",
    "name": "Lépcsősor utca",
    "surface": "asphalt"
  }
},
{
  "type": "way",
  "id": 33506487,
  "center": {
    "lat": 46.8558318,
    "lon": 16.7944311
  },
  "nodes": [
    381941337,
    2190151739,
    11252117227,
    2190151688,
    11252117215,
    381941338
  ],
  "tags": {
    "highway": "residential",
    "name": "Vorhotai utca",
    "surface": "concrete"
  }
},
{
  "type": "way",
  "id": 33508854,
  "center": {
    "lat": 46.8554330,
    "lon": 16.7840824
  },
  "nodes": [
    381941379,
    11252172397,
    381986707
  ],
  "tags": {
    "highway": "residential",
    "name": "Panoráma utca",
    "surface": "paved"
  }
},
{
  "type": "way",
  "id": 33740564,
  "center": {
    "lat": 46.8528507,
    "lon": 16.8452823
  },
  "nodes": [
    347300701,
    2197778917,
    2197778947,
    2197778881,
    2197832831
  ],
  "tags": {
    "highway": "tertiary",
    "lanes": "2",
    "lit": "yes",
    "maxspeed": "50",
    "maxspeed:type": "HU:urban",
    "name": "Kaszaházi út",
    "sidewalk": "separate",
    "surface": "asphalt"
  }
},
{
  "type": "way",
  "id": 33740567,
  "center": {
    "lat": 46.8554880,
    "lon": 16.8478071
  },
  "nodes": [
    2199375407,
    1776336263,
    385949129,
    2199375405,
    1776336255,
    385949130,
    2199392939,
    385949131,
    385949132,
    2197837480,
    385949133,
    2197837499,
    2197837497,
    2197837493,
    385949134,
    2197837487,
    385949135,
    2197837478,
    11263670057,
    385949136,
    2197837486,
    2197837485,
    385949137,
    2197837490,
    347300701
  ],
  "tags": {
    "highway": "tertiary",
    "lanes": "2",
    "lit": "yes",
    "maxspeed": "50",
    "maxspeed:type": "HU:urban",
    "name": "Kaszaházi út",
    "sidewalk": "separate",
    "surface": "asphalt"
  }
},
{
  "type": "way",
  "id": 33740663,
  "center": {
    "lat": 46.8447529,
    "lon": 16.8612272
  },
  "nodes": [
    331964846,
    1776500815,
    1776500812,
    10712340309,
    331964839
  ],
  "tags": {
    "agricultural": "no",
    "bicycle": "no",
    "carriage": "no",
    "highway": "primary",
    "lanes": "1",
    "lit": "yes",
    "maxspeed": "50",
    "maxspeed:type": "HU:urban",
    "name": "Balatoni út",
    "oneway": "yes",
    "priority_road": "yes",
    "ref": "762",
    "sidewalk:right": "separate",
    "surface": "asphalt"
  }
},
{
  "type": "way",
  "id": 33754351,
  "center": {
    "lat": 46.8617642,
    "lon": 16.8084165
  },
  "nodes": [
    347301286,
    2191197084,
    13376914592,
    2191197009,
    13376914593,
    1618891792,
    13376914594,
    2191197072,
    386168951,
    11251468294,
    6699422015
  ],
  "tags": {
    "bicycle": "designated",
    "cycleway": "shared_lane",
    "highway": "secondary",
    "lanes": "2",
    "lit": "yes",
    "maxspeed": "50",
    "maxspeed:type": "HU:urban",
    "name": "Gébárti út",
    "ref": "7406",
    "sidewalk:right": "separate",
    "surface": "asphalt"
  }
},
{
  "type": "way",
  "id": 33754352,
  "center": {
    "lat": 46.8618911,
    "lon": 16.8037615
  },
  "nodes": [
    386168945,
    11254046120,
    2191196937,
    2190189921,
    2190190160,
    386168947,
    9795552816,
    2191197060,
    2190190523,
    2190190369,
    386168949,
    2191196975,
    2191197023,
    2199974263,
    2199974275,
    2191197081,
    2191196944,
    2191197079,
    2191196962,
    347301286
  ],
  "tags": {
    "cycleway:both": "shared_lane",
    "cycleway:both:lane": "pictogram",
    "highway": "secondary",
    "lanes": "2",
    "lit": "yes",
    "maxspeed": "50",
    "maxspeed:type": "HU:urban",
    "name": "Gébárti út",
    "ref": "7406",
    "sidewalk:left": "separate",
    "surface": "asphalt"
  }
},
{
  "type": "way",
  "id": 33754353,
  "center": {
    "lat": 46.8558948,
    "lon": 16.8270092
  },
  "nodes": [
    347300385,
    12124256975,
    2191289640,
    2194438009,
    2191289538,
    1618903577,
    2191290021,
    347301288,
    2191289750,
    13515889747,
    12124256980,
    347300965
  ],
  "tags": {
    "cycleway:right": "shared_lane",
    "highway": "residential",
    "maxweight": "3.5",
    "name": "Neszele út",
    "oneway": "yes",
    "oneway:bicycle": "no",
    "surface": "asphalt"
  }
},
{
  "type": "way",
  "id": 33754355,
  "center": {
    "lat": 46.8545997,
    "lon": 16.8282190
  },
  "nodes": [
    347300965,
    2191289377,
    13373143111,
    11249184107,
    386168965,
    1618903576,
    1618903592,
    2191289629,
    13373143113,
    347300336,
    13373143114,
    2191289764,
    13373143115,
    1618903593
  ],
  "tags": {
    "highway": "residential",
    "maxspeed": "30",
    "name": "Zala utca",
    "surface": "asphalt",
    "zone:maxspeed": "HU:30"
  }
},
{
  "type": "way",
  "id": 33754357,
  "center": {
    "lat": 46.8495865,
    "lon": 16.8233683
  },
  "nodes": [
    386168956,
    11250220271,
    13515648063,
    11250220268,
    1618903587,
    2183600551,
    2183600557,
    2183600567,
    2183600539
  ],
  "tags": {
    "highway": "residential",
    "name": "Malom utca",
    "surface": "asphalt"
  }
},
{
  "type": "way",
  "id": 33754358,
  "center": {
    "lat": 46.8570081,
    "lon": 16.8285119
  },
  "nodes": [
    347300385,
    13604214371,
    386168967,
    1618903594,
    2191289478,
    11249184239,
    2191289373
  ],
  "tags": {
    "highway": "secondary",
    "lanes": "2",
    "lit": "yes",
    "maxspeed": "50",
    "maxspeed:type": "HU:urban",
    "name": "Gébárti út",
    "ref": "7406",
    "sidewalk": "right",
    "surface": "asphalt"
  }
},
{
  "type": "way",
  "id": 33754359,
  "center": {
    "lat": 46.8574782,
    "lon": 16.8314371
  },
  "nodes": [
    386168964,
    2191289886,
    12347713761,
    2194380547,
    347300365,
    2194380643,
    2191289515,
    2194380633,
    2191290078,
    2194380652,
    347300383
  ],
  "tags": {
    "highway": "secondary",
    "lanes": "2",
    "lit": "yes",
    "maxspeed": "50",
    "maxspeed:type": "HU:urban",
    "name": "Gébárti út",
    "ref": "7406",
    "sidewalk:right": "separate",
    "surface": "asphalt"
  }
},
{
  "type": "way",
  "id": 33754361,
  "center": {
    "lat": 46.8564442,
    "lon": 16.8292893
  },
  "nodes": [
    386168966,
    2194077979,
    2194077982,
    2194077981
  ],
  "tags": {
    "highway": "residential",
    "name": "Jedlik Ányos utca"
  }
},
{
  "type": "way",
  "id": 33754362,
  "center": {
    "lat": 46.8553742,
    "lon": 16.8313614
  },
  "nodes": [
    1618903586,
    386168968,
    2191289575,
    386168969
  ],
  "tags": {
    "highway": "residential",
    "name": "Jégmadár utca"
  }
},
{
  "type": "way",
  "id": 33754364,
  "center": {
    "lat": 46.8558091,
    "lon": 16.8281309
  },
  "nodes": [
    1618903576,
    13373143112,
    386168966,
    2194074438,
    2194074293,
    2194074336,
    386168967
  ],
  "tags": {
    "highway": "residential",
    "name": "Irinyi János utca"
  }
},
{
  "type": "way",
  "id": 33754366,
  "center": {
    "lat": 46.8540758,
    "lon": 16.7970431
  },
  "nodes": [
    386169122,
    2190063416,
    2190063512,
    386169123,
    11252109834,
    386169124,
    386169125,
    386169126,
    2190063556,
    386169127,
    11252109830,
    2190063475,
    386169128,
    386169129,
    2192081872,
    386169130,
    2192081936,
    386169131
  ],
  "tags": {
    "highway": "residential",
    "name": "Völgyi út",
    "surface": "paved"
  }
},
{
  "type": "way",
  "id": 33754368,
  "center": {
    "lat": 46.8506819,
    "lon": 16.7963876
  },
  "nodes": [
    2192081924,
    2192081876,
    2192081943,
    386169168,
    386169169,
    386169170,
    386169171,
    386169172,
    2190063651,
    2190063497,
    2190063445,
    2190063680,
    2190063672,
    2190063660,
    2190063486,
    2190063647,
    2190063413,
    2190063537,
    2190063440,
    2190063545,
    2190063524,
    2193814078,
    2190063553,
    2190063446,
    2190063548,
    2190063612,
    2190063598,
    2190063677,
    2190063592
  ],
  "tags": {
    "highway": "residential",
    "maxspeed": "40",
    "name": "Vorhotai utca",
    "surface": "paved"
  }
},
{
  "type": "way",
  "id": 33754369,
  "center": {
    "lat": 46.8543289,
    "lon": 16.7950750
  },
  "nodes": [
    386169131,
    13376247323,
    2192081975,
    13376247321,
    386169173,
    13376247320,
    2192082010,
    386169174,
    386169175,
    2192081950,
    11627977070,
    386169176
  ],
  "tags": {
    "highway": "residential",
    "name": "Vorhotai utca",
    "surface": "concrete"
  }
},
{
  "type": "way",
  "id": 33754372,
  "center": {
    "lat": 46.8486469,
    "lon": 16.7912274
  },
  "nodes": [
    386169144,
    386169145,
    386169146,
    386169147,
    386169148,
    2192097174,
    386169149,
    386169150,
    386169151,
    2192097185,
    386169152,
    2192097193,
    386169153,
    2192097200,
    2192097158,
    2192097157,
    2192097206,
    2192097180,
    2192097184,
    2192097165,
    2192097161,
    2192097178,
    2192097189,
    2192097196,
    2192097159,
    2192097201,
    2193846588,
    2192097171,
    2192097198,
    2192097192,
    2192097203,
    2192097153,
    2192097166,
    2192097183
  ],
  "tags": {
    "highway": "residential",
    "name": "Szőlőhegyi utca",
    "surface": "unpaved"
  }
},
{
  "type": "way",
  "id": 33754373,
  "center": {
    "lat": 46.8548804,
    "lon": 16.7946661
  },
  "nodes": [
    386169176,
    2190134537,
    381941338
  ],
  "tags": {
    "highway": "path",
    "name": "Vorhotai utca",
    "smoothness": "very_bad",
    "surface": "earth",
    "width": "0.3"
  }
},
{
  "type": "way",
  "id": 33754933,
  "center": {
    "lat": 46.8441121,
    "lon": 16.7918281
  },
  "nodes": [
    386169021,
    2193846332,
    386169022,
    2193846406,
    386169023,
    386169024,
    2193846580,
    386169027,
    2193846296,
    386169030,
    2193846292,
    386169033
  ],
  "tags": {
    "highway": "tertiary",
    "incline": "up",
    "lanes": "2",
    "lit": "no",
    "maxspeed": "50",
    "maxspeed:type": "HU:urban",
    "name": "Erzsébet utca",
    "ref": "74104",
    "sidewalk": "no",
    "surface": "asphalt"
  }
},
{
  "type": "way",
  "id": 41767535,
  "center": {
    "lat": 46.8338335,
    "lon": 16.8406155
  },
  "nodes": [
    368312492,
    2177583726,
    2177583718,
    2177583760,
    2177590117,
    11244761963,
    514698769,
    2172115176,
    7881165628,
    7881165629,
    514698773,
    2172115196,
    514698777,
    2177583738,
    2175868051,
    11244761964,
    514698780,
    2175867935,
    514698783,
    2172115224,
    2172115180,
    514698787,
    2172115217,
    2172115183,
    1776288984,
    2172115158,
    2172115274,
    514698797,
    2172115236,
    514698798,
    1776288987,
    5360718919,
    2171674388
  ],
  "tags": {
    "highway": "residential",
    "lanes": "2",
    "name": "Olajmunkás utca",
    "surface": "asphalt"
  }
},
{
  "type": "way",
  "id": 41767607,
  "center": {
    "lat": 46.8369093,
    "lon": 16.8439299
  },
  "nodes": [
    353565779,
    3765483165
  ],
  "tags": {
    "highway": "residential",
    "maxspeed": "30",
    "name": "Zárda utca",
    "surface": "asphalt"
  }
},
{
  "type": "way",
  "id": 41767639,
  "center": {
    "lat": 46.8288304,
    "lon": 16.8451538
  },
  "nodes": [
    514710958,
    514764351,
    514710961,
    2181046753,
    2181046724,
    514811715
  ],
  "tags": {
    "highway": "residential",
    "name": "Katona József utca"
  }
},
{
  "type": "way",
  "id": 41767984,
  "center": {
    "lat": 46.8321124,
    "lon": 16.8457122
  },
  "nodes": [
    2175389784,
    1828662690,
    514717064,
    7881223263,
    514717065
  ],
  "tags": {
    "highway": "residential",
    "name": "Árpád utca"
  }
},
{
  "type": "way",
  "id": 41768008,
  "center": {
    "lat": 46.8314194,
    "lon": 16.8441314
  },
  "nodes": [
    514717065,
    2175511201,
    514764291
  ],
  "tags": {
    "highway": "residential",
    "name": "Orsolya utca"
  }
},
{
  "type": "way",
  "id": 41768012,
  "center": {
    "lat": 46.8303235,
    "lon": 16.8443033
  },
  "nodes": [
    514703069,
    514811726
  ],
  "tags": {
    "highway": "residential",
    "name": "Orsolya tér"
  }
},
{
  "type": "way",
  "id": 41768451,
  "center": {
    "lat": 46.8287535,
    "lon": 16.8442788
  },
  "nodes": [
    514811726,
    2181064262,
    2175511194,
    2175511192,
    514703078,
    514703083
  ],
  "tags": {
    "highway": "residential",
    "name": "Perczel Mór utca"
  }
},
{
  "type": "way",
  "id": 41768453,
  "center": {
    "lat": 46.8238043,
    "lon": 16.8449070
  },
  "nodes": [
    514745802,
    514764323,
    11240330587,
    514710958,
    2175511198,
    1776288935,
    2175511176,
    514703083,
    1776288934,
    2175511191,
    2181129727,
    516350399,
    1447224894,
    11263670750,
    2181129618,
    514745817,
    2181129690,
    2181129749,
    514745821,
    2181129669,
    2181129703,
    514745826,
    11263670748,
    11263670747,
    2181129724,
    1776288929,
    2181129670,
    2181129589,
    2181129737,
    514745830,
    2181129654,
    2181129658,
    1774560527,
    2181156597,
    1447224883,
    2181129712,
    2181129713,
    516350406,
    2181129674,
    516350414,
    516350417,
    2181264435,
    516349879,
    2181264402,
    2181264411,
    1776482831,
    516350420,
    1447224977,
    1447224835,
    2181264513,
    11244762157,
    1447224972
  ],
  "tags": {
    "highway": "residential",
    "name": "Bartók Béla utca"
  }
},
{
  "type": "way",
  "id": 41769089,
  "center": {
    "lat": 46.8348063,
    "lon": 16.8462875
  },
  "nodes": [
    514764244,
    1828662667,
    2904358539
  ],
  "tags": {
    "highway": "residential",
    "name": "Tomori Pál utca"
  }
},
{
  "type": "way",
  "id": 41769090,
  "center": {
    "lat": 46.8330148,
    "lon": 16.8451722
  },
  "nodes": [
    514703061,
    514764255,
    514764259
  ],
  "tags": {
    "highway": "residential",
    "name": "József Attila utca",
    "surface": "asphalt"
  }
},
{
  "type": "way",
  "id": 41769091,
  "center": {
    "lat": 46.8332524,
    "lon": 16.8470508
  },
  "nodes": [
    2175389785,
    1828662675,
    11240330547,
    2175389817,
    1776288979,
    514764271,
    2175389822,
    2175389809,
    514764259,
    11235057582,
    11235057581,
    2175389814,
    1776288978,
    2175389810,
    514764273,
    1828662685,
    2175389821
  ],
  "tags": {
    "highway": "residential",
    "name": "Bajcsy-Zsilinszky tér",
    "oneway": "yes"
  }
},
{
  "type": "way",
  "id": 41769093,
  "center": {
    "lat": 46.8341077,
    "lon": 16.8463834
  },
  "nodes": [
    368272957,
    1828662672,
    514764284
  ],
  "tags": {
    "highway": "residential",
    "name": "Dobó Katalin utca",
    "oneway": "yes"
  }
},
{
  "type": "way",
  "id": 41769094,
  "center": {
    "lat": 46.8312308,
    "lon": 16.8459930
  },
  "nodes": [
    514764291,
    514764295,
    514764299
  ],
  "tags": {
    "highway": "residential",
    "name": "Bem József utca"
  }
},
{
  "type": "way",
  "id": 41769095,
  "center": {
    "lat": 46.8275014,
    "lon": 16.8452073
  },
  "nodes": [
    516350399,
    2175511193,
    2175511169,
    516350434,
    2175511195,
    2181106158,
    11240330591,
    1776288932,
    2181106040,
    11240330590,
    516350438,
    2181106274,
    1776251316,
    11240330588,
    11240330592,
    11240330589,
    2181106170,
    1776251317,
    11240330587
  ],
  "tags": {
    "highway": "residential",
    "name": "Móricz Zsigmond utca"
  }
},
{
  "type": "way",
  "id": 41769096,
  "center": {
    "lat": 46.8295723,
    "lon": 16.8456317
  },
  "nodes": [
    514710961,
    514764336
  ],
  "tags": {
    "highway": "residential",
    "name": "Kút utca"
  }
},
{
  "type": "way",
  "id": 41769097,
  "center": {
    "lat": 46.8289006,
    "lon": 16.8457560
  },
  "nodes": [
    514764351,
    514764328
  ],
  "tags": {
    "highway": "residential",
    "name": "Kút utca"
  }
},
{
  "type": "way",
  "id": 41770271,
  "center": {
    "lat": 46.8298389,
    "lon": 16.8437762
  },
  "nodes": [
    514811726,
    1447224730
  ],
  "tags": {
    "highway": "residential",
    "maxspeed": "30",
    "name": "Orsolya tér"
  }
},
{
  "type": "way",
  "id": 41770274,
  "center": {
    "lat": 46.8300716,
    "lon": 16.8469634
  },
  "nodes": [
    514811775,
    514811782
  ],
  "tags": {
    "highway": "residential",
    "name": "Tóth Árpád utca"
  }
},
{
  "type": "way",
  "id": 41774026,
  "center": {
    "lat": 46.8045600,
    "lon": 16.8501799
  },
  "nodes": [
    13573997460,
    478305894,
    7735117562,
    7735117563,
    478305897,
    11758359380,
    7735117561,
    478305901
  ],
  "tags": {
    "highway": "secondary",
    "lanes": "2",
    "maxspeed": "90",
    "maxspeed:type": "HU:rural",
    "name": "Posta utca",
    "ref": "7410",
    "surface": "asphalt"
  }
},
{
  "type": "way",
  "id": 41774027,
  "center": {
    "lat": 46.7999567,
    "lon": 16.8503555
  },
  "nodes": [
    1239111794,
    11817097195
  ],
  "tags": {
    "highway": "secondary",
    "lanes": "3",
    "lanes:backward": "2",
    "lanes:forward": "1",
    "lit": "yes",
    "maxspeed:backward": "70",
    "maxspeed:forward": "90",
    "maxspeed:type:backward": "sign",
    "maxspeed:type:forward": "HU:rural",
    "name": "Posta utca",
    "overtaking": "no",
    "ref": "7410",
    "surface": "asphalt",
    "turn:lanes:backward": "left|through;right"
  }
},
{
  "type": "way",
  "id": 41774029,
  "center": {
    "lat": 46.8005693,
    "lon": 16.8679771
  },
  "nodes": [
    514957145,
    1085306892,
    11240330643,
    11240330641,
    11240330642,
    2859123016,
    2859123015,
    7731931936,
    7731931939,
    7731931941,
    7731931938,
    7731931937,
    7731931940,
    1085307012,
    2859123014,
    1085306852,
    7731931916,
    7731931915,
    7731931935,
    7731931934,
    7731931933,
    3913475632,
    7731931931,
    2859123013,
    7731931932,
    7731931930,
    514957165,
    7731931929,
    2859123012,
    7731931928,
    1085306979,
    7731931927,
    2859123011,
    7731931926,
    7731931917,
    7731931925,
    7731931922,
    2859123010,
    7731931921,
    2859123026
  ],
  "tags": {
    "highway": "tertiary",
    "lanes": "2",
    "lit": "yes",
    "maxspeed": "50",
    "maxspeed:type": "HU:urban",
    "name": "Botfa utca",
    "ref": "73231",
    "sidewalk:left": "no",
    "sidewalk:right": "separate",
    "surface": "asphalt"
  }
},
{
  "type": "way",
  "id": 41774032,
  "center": {
    "lat": 46.8340927,
    "lon": 16.8426635
  },
  "nodes": [
    514957272,
    7880342986,
    514957277
  ],
  "tags": {
    "highway": "residential",
    "lane_markings": "no",
    "name": "Mátyás király utca",
    "oneway": "yes",
    "surface": "asphalt"
  }
},
{
  "type": "way",
  "id": 41774034,
  "center": {
    "lat": 46.8348575,
    "lon": 16.8408271
  },
  "nodes": [
    514698787,
    2172115150,
    2385571770
  ],
  "tags": {
    "highway": "residential",
    "lanes": "2",
    "name": "Czobor Mátyás utca",
    "surface": "asphalt"
  }
},
{
  "type": "way",
  "id": 41774035,
  "center": {
    "lat": 46.8334114,
    "lon": 16.8400844
  },
  "nodes": [
    514698780,
    2385571740,
    353574082
  ],
  "tags": {
    "highway": "residential",
    "lane_markings": "no",
    "name": "Fecske utca",
    "surface": "asphalt"
  }
},
{
  "type": "way",
  "id": 41818247,
  "center": {
    "lat": 46.8228517,
    "lon": 16.8427064
  },
  "nodes": [
    516349865,
    1776482870,
    2181269995,
    2181270047,
    1776482868,
    2181270130,
    2181129621,
    1776482855,
    1776482850,
    2181129678,
    516349872,
    2181129717,
    1776482837,
    516349879
  ],
  "tags": {
    "highway": "residential",
    "name": "Liliom utca"
  }
},
{
  "type": "way",
  "id": 41818248,
  "center": {
    "lat": 46.8218881,
    "lon": 16.8456225
  },
  "nodes": [
    516349879,
    2181234211,
    2181234164,
    11263670270,
    2181264454,
    6166975682
  ],
  "tags": {
    "highway": "residential",
    "name": "Szállítók útja"
  }
},
{
  "type": "way",
  "id": 41818250,
  "center": {
    "lat": 46.8234803,
    "lon": 16.8342525
  },
  "nodes": [
    1775909319,
    11244761942,
    516349910,
    2172133711,
    1447224734,
    516349918,
    1447224932,
    2181342758,
    516349931,
    516349934,
    2181306157
  ],
  "tags": {
    "highway": "residential",
    "name": "Göcseji Pataki Ferenc utca"
  }
},
{
  "type": "way",
  "id": 41818252,
  "center": {
    "lat": 46.8221599,
    "lon": 16.8323857
  },
  "nodes": [
    1447224667,
    2172133713,
    2172133702,
    516349993,
    2172133701,
    2172133703,
    2181306211,
    2181306268,
    1447224801,
    2181347869,
    516349996,
    2181306169,
    2181351439,
    2181306239,
    516350000,
    2181345870,
    2181306221,
    2181306187,
    2181306161,
    2181345864,
    2181306165,
    516350001,
    2181306191,
    2181306219,
    2181306248,
    516350006,
    2181306230,
    2181306242,
    2181306205,
    2181306159,
    2181306237,
    516350011,
    2181390967,
    11263670682,
    2181402557,
    516350016
  ],
  "tags": {
    "highway": "residential",
    "name": "Nemzetőr utca"
  }
},
{
  "type": "way",
  "id": 41818253,
  "center": {
    "lat": 46.8205254,
    "lon": 16.8340341
  },
  "nodes": [
    516350029,
    11267856249,
    2181306235,
    2181306220,
    516350064,
    11267856250,
    2181306259,
    2181306218,
    2181306225,
    516350072,
    2181306224,
    516350080,
    2181315291,
    2181315255,
    2181315292,
    2181315270,
    2181315279
  ],
  "tags": {
    "highway": "residential",
    "name": "Cinke utca"
  }
},
{
  "type": "way",
  "id": 41818255,
  "center": {
    "lat": 46.8285130,
    "lon": 16.8331745
  },
  "nodes": [
    368313085,
    7881159565,
    11263670575,
    11263670074,
    516350156
  ],
  "tags": {
    "highway": "residential",
    "lane_markings": "no",
    "name": "Lehel utca",
    "oneway": "no",
    "surface": "asphalt",
    "width": "3"
  }
},
{
  "type": "way",
  "id": 41818257,
  "center": {
    "lat": 46.8276605,
    "lon": 16.8346893
  },
  "nodes": [
    2180300452,
    2180300454,
    2180300453,
    2180300455,
    516350187
  ],
  "tags": {
    "highway": "residential",
    "lane_markings": "no",
    "maxweight": "5",
    "name": "Ifjúság útja",
    "oneway": "yes",
    "surface": "asphalt"
  }
},
{
  "type": "way",
  "id": 41818259,
  "center": {
    "lat": 46.8261896,
    "lon": 16.8377906
  },
  "nodes": [
    368270501,
    2177628544,
    2177628548,
    1776251315,
    1776251314,
    516350223,
    1776251312,
    516350234,
    516350238,
    10971800874,
    2177628534,
    516350241,
    1447224964,
    2177628550,
    1447224781,
    1447224973,
    1447224740
  ],
  "tags": {
    "highway": "residential",
    "name": "Sas utca"
  }
},
{
  "type": "way",
  "id": 41818261,
  "center": {
    "lat": 46.8274073,
    "lon": 16.8351786
  },
  "nodes": [
    516350266,
    7881165500,
    7881165498,
    516350262
  ],
  "tags": {
    "highway": "residential",
    "lane_markings": "no",
    "name": "Mészáros Lázár utca",
    "old_name": "Pesti Barnabás utca",
    "oneway": "yes",
    "source": "local_knowledge",
    "surface": "asphalt"
  }
},
{
  "type": "way",
  "id": 41818263,
  "center": {
    "lat": 46.8313665,
    "lon": 16.8461023
  },
  "nodes": [
    514764323,
    11240330586,
    2181044317,
    2181044400,
    2181044384,
    2181044355,
    2181044430,
    1776251318,
    514764328,
    514764336,
    514811775,
    13573997462,
    514764295,
    514717064,
    514764255,
    2171697750,
    2171697776,
    2175444124,
    514764284,
    2904358539
  ],
  "tags": {
    "highway": "residential",
    "name": "Szent László utca"
  }
},
{
  "type": "way",
  "id": 41818267,
  "center": {
    "lat": 46.8279598,
    "lon": 16.8363900
  },
  "nodes": [
    2180300452,
    516350262,
    11267856107,
    11267856110,
    11267856112,
    11267856105,
    368270501
  ],
  "tags": {
    "highway": "residential",
    "lane_markings": "no",
    "name": "Babits Mihály utca",
    "surface": "asphalt"
  }
},
{
  "type": "way",
  "id": 41818268,
  "center": {
    "lat": 46.8266141,
    "lon": 16.8348727
  },
  "nodes": [
    516350314,
    7881165495,
    7881165504,
    2180171945,
    2172133723,
    2180171930,
    2172133706,
    7881165679,
    516350266,
    516350187,
    2180171944,
    1447224962,
    516350301
  ],
  "tags": {
    "highway": "residential",
    "lanes": "2",
    "name": "Pálóczi Horváth Ádám utca",
    "surface": "asphalt"
  }
},
{
  "type": "way",
  "id": 41819985,
  "center": {
    "lat": 46.8801474,
    "lon": 16.8255331
  },
  "nodes": [
    2191289468,
    1110221777
  ],
  "tags": {
    "highway": "residential",
    "lit": "yes",
    "name": "Ságodi út",
    "smoothness": "intermediate"
  }
},
{
  "type": "way",
  "id": 41819988,
  "center": {
    "lat": 46.8553712,
    "lon": 16.8444486
  },
  "nodes": [
    13596528789,
    516393033,
    2197778954,
    1776336250,
    11247061710,
    2197778910,
    2197778939,
    347300170,
    1776336246,
    2197778933,
    516393037,
    2197778870,
    1776336235,
    1776336233,
    11247061883,
    2197778894,
    2197778937,
    347300701
  ],
  "tags": {
    "highway": "residential",
    "lanes": "2",
    "lit": "yes",
    "maxspeed": "50",
    "maxspeed:type": "HU:urban",
    "name": "Ságodi út",
    "sidewalk:left": "separate",
    "surface": "asphalt"
  }
},
{
  "type": "way",
  "id": 41819996,
  "center": {
    "lat": 46.8688604,
    "lon": 16.8504316
  },
  "nodes": [
    516393171,
    13596575911,
    2904443484,
    2197965193,
    2197965165,
    2198082267,
    2197965120,
    11244901718,
    2197965173,
    2199409280,
    516393192,
    516393196,
    2198115479,
    2198115477,
    2198116194,
    2198116195,
    632831274,
    632831285,
    2198116184,
    632831276,
    2198116197,
    2198116186,
    632831277
  ],
  "tags": {
    "highway": "residential",
    "name": "Virágzó mező utca"
  }
},
{
  "type": "way",
  "id": 41820000,
  "center": {
    "lat": 46.8639734,
    "lon": 16.8531185
  },
  "nodes": [
    516393205,
    13594014782,
    516393212
  ],
  "tags": {
    "highway": "residential",
    "lanes": "2",
    "lit": "yes",
    "name": "Nekeresdi út",
    "sidewalk:right": "separate",
    "surface": "asphalt"
  }
},
{
  "type": "way",
  "id": 41820002,
  "center": {
    "lat": 46.8615164,
    "lon": 16.8522579
  },
  "nodes": [
    516393171,
    1288262719
  ],
  "tags": {
    "bicycle": "use_sidepath",
    "highway": "residential",
    "lanes": "2",
    "maxspeed": "90",
    "maxspeed:type": "HU:rural",
    "name": "Nekeresdi út",
    "surface": "asphalt"
  }
},
{
  "type": "way",
  "id": 41820004,
  "center": {
    "lat": 46.8468510,
    "lon": 16.8436344
  },
  "nodes": [
    516393245,
    516393249
  ],
  "tags": {
    "highway": "residential",
    "lanes": "2",
    "lit": "yes",
    "name": "Szeglet utca",
    "sidewalk": "both",
    "surface": "asphalt"
  }
},
{
  "type": "way",
  "id": 41820005,
  "center": {
    "lat": 46.8523909,
    "lon": 16.8463379
  },
  "nodes": [
    439175139,
    2197795789,
    2197778864,
    2197778932,
    516393261,
    11247381426,
    11247381427,
    2197778868,
    2904257952,
    347300701
  ],
  "tags": {
    "highway": "residential",
    "name": "Vásártér utca"
  }
},
{
  "type": "way",
  "id": 41820006,
  "center": {
    "lat": 46.8592692,
    "lon": 16.8467701
  },
  "nodes": [
    2197965195,
    12347713766,
    11244885226,
    2197965190,
    2197965189,
    2197965180,
    2197965154,
    1288262697,
    2197965124,
    1288262666,
    1288262754,
    2197965187,
    2197965161,
    1288262690,
    2197965141,
    1288262660,
    2197965182,
    11248471504,
    1288262746,
    2197965197,
    2197965169,
    11248471505,
    1288262715,
    2198064066,
    1288262681,
    2197965151,
    2197965178,
    2197965129,
    1288262773,
    11248471506,
    2197965122,
    2197965160,
    1288262737,
    2197965144,
    516393268,
    12347713765,
    12347713764,
    516393031,
    2904250444,
    2197890674,
    12347713763,
    516393271,
    2197965176,
    516393279,
    2197965152,
    2941437621,
    516393283,
    2195517097,
    2195517098,
    2195517092,
    347300303
  ],
  "tags": {
    "highway": "secondary",
    "lanes": "2",
    "maxspeed": "90",
    "maxspeed:type": "HU:rural",
    "name": "Kiserdei út",
    "ref": "7406",
    "sidewalk:right": "separate",
    "surface": "asphalt"
  }
},
{
  "type": "way",
  "id": 41820007,
  "center": {
    "lat": 46.8582439,
    "lon": 16.8474202
  },
  "nodes": [
    516393161,
    2197926047,
    2197926050,
    2197926037,
    2197926048,
    2197926042,
    2199370105,
    2197926049,
    2197926033,
    2199370103,
    516393304,
    2197926052,
    2197926043,
    516393301
  ],
  "tags": {
    "highway": "residential",
    "name": "Verőfény utca"
  }
},
{
  "type": "way",
  "id": 41820009,
  "center": {
    "lat": 46.8554255,
    "lon": 16.8462683
  },
  "nodes": [
    385949135,
    2904250495,
    2197835825,
    2197835830,
    516393313,
    2197835813,
    1776336248,
    2197875675,
    2197835805,
    516393314,
    2197875220,
    2197875081
  ],
  "tags": {
    "highway": "residential",
    "name": "Füzike utca"
  }
},
{
  "type": "way",
  "id": 41820013,
  "center": {
    "lat": 46.8466065,
    "lon": 16.8394926
  },
  "nodes": [
    516393325,
    8432667509,
    516393328,
    2183642722,
    516393332,
    2183406351,
    1776361626,
    2183406385,
    2183406344,
    516393339,
    516393342,
    2183613460,
    516393345,
    10812780433,
    2914397256
  ],
  "tags": {
    "access": "destination",
    "highway": "residential",
    "name": "Kert utca"
  }
},
{
  "type": "way",
  "id": 41820015,
  "center": {
    "lat": 46.8463250,
    "lon": 16.8411979
  },
  "nodes": [
    516393345,
    2183406348,
    2183406382,
    1776361625,
    5252430590,
    10812780457,
    2183406375,
    7862267969,
    516393351
  ],
  "tags": {
    "highway": "residential",
    "name": "Könyök utca"
  }
},
{
  "type": "way",
  "id": 41820016,
  "center": {
    "lat": 46.8465908,
    "lon": 16.8431948
  },
  "nodes": [
    516393356,
    11253925313,
    2183422201,
    11253925255,
    2183422213,
    516393245,
    11253925256,
    5252430593,
    7862267977,
    276984824
  ],
  "tags": {
    "highway": "residential",
    "lit": "yes",
    "name": "Jákum Ferenc utca",
    "oneway": "yes",
    "sidewalk": "both",
    "surface": "asphalt"
  }
},
{
  "type": "way",
  "id": 41820017,
  "center": {
    "lat": 46.8476869,
    "lon": 16.8439684
  },
  "nodes": [
    516393356,
    9720566527,
    11253925251,
    3939799576,
    3939799574,
    11253925312,
    11253925248,
    516393369
  ],
  "tags": {
    "highway": "tertiary",
    "lanes": "2",
    "lit": "yes",
    "maxspeed": "30",
    "maxspeed:type": "sign",
    "name": "Budai Nagy Antal utca",
    "overtaking": "no",
    "sidewalk": "both",
    "surface": "asphalt"
  }
},
{
  "type": "way",
  "id": 41820018,
  "center": {
    "lat": 46.8444916,
    "lon": 16.8431899
  },
  "nodes": [
    353555253,
    2183410426,
    13512569960,
    381101935,
    11253925259,
    353555507
  ],
  "tags": {
    "highway": "tertiary",
    "lanes": "2",
    "lit": "yes",
    "maxspeed": "50",
    "maxspeed:type": "HU:urban",
    "name": "Mártírok útja",
    "sidewalk": "separate",
    "surface": "asphalt"
  }
},
{
  "type": "way",
  "id": 41859412,
  "center": {
    "lat": 46.8474894,
    "lon": 16.8275858
  },
  "nodes": [
    517590148,
    2183812440,
    2183812419,
    525435623
  ],
  "tags": {
    "highway": "tertiary",
    "lanes": "2",
    "lit": "yes",
    "maxspeed": "50",
    "maxspeed:type": "HU:urban",
    "name": "Platán sor",
    "sidewalk:left": "separate",
    "surface": "asphalt"
  }
},
{
  "type": "way",
  "id": 41859415,
  "center": {
    "lat": 46.8544702,
    "lon": 16.8076077
  },
  "nodes": [
    796757634,
    2190134559,
    276097466,
    2190134579,
    2190134532,
    2190134566,
    2190134548,
    11252109815,
    2190134525,
    11252109814,
    2190134557,
    276097467,
    2190151701,
    276097468,
    13522960124
  ],
  "tags": {
    "cycleway:both": "no",
    "highway": "primary",
    "lanes": "2",
    "lit": "yes",
    "maxspeed": "50",
    "maxspeed:type": "HU:urban",
    "name": "Hock János utca",
    "priority_road": "yes",
    "ref": "762",
    "sidewalk:left": "separate",
    "sidewalk:right": "no",
    "surface": "asphalt"
  }
},
{
  "type": "way",
  "id": 41859417,
  "center": {
    "lat": 46.8457602,
    "lon": 16.8402500
  },
  "nodes": [
    353561963,
    7117814917,
    2904313168
  ],
  "tags": {
    "highway": "residential",
    "lanes": "3",
    "lanes:backward": "2",
    "lanes:forward": "1",
    "lit": "yes",
    "maxspeed": "50",
    "maxweight": "7.5",
    "name": "Arany János utca",
    "placement:forward": "left_of:1",
    "sidewalk": "both",
    "surface": "asphalt",
    "turn:lanes:backward": "left;through|right"
  }
},
{
  "type": "way",
  "id": 41859420,
  "center": {
    "lat": 46.8463867,
    "lon": 16.8369045
  },
  "nodes": [
    13515648045,
    516393325,
    353563125,
    9497558305
  ],
  "tags": {
    "cycleway:both": "lane",
    "cycleway:both:lane": "exclusive",
    "highway": "primary",
    "lanes": "3",
    "lanes:backward": "2",
    "lanes:forward": "1",
    "maxspeed": "50",
    "maxspeed:type": "HU:urban",
    "name": "Rákóczi Ferenc utca",
    "placement:forward": "left_of:1",
    "priority_road": "yes",
    "ref": "762",
    "sidewalk": "separate",
    "surface": "asphalt"
  }
},
{
  "type": "way",
  "id": 41859461,
  "center": {
    "lat": 46.8469261,
    "lon": 16.8316039
  },
  "nodes": [
    2183136046,
    2183135981
  ],
  "tags": {
    "bicycle": "no",
    "highway": "primary",
    "lanes": "2",
    "lit": "yes",
    "maxspeed": "50",
    "maxspeed:type": "HU:urban",
    "name": "Ola utca",
    "priority_road": "yes",
    "ref": "762",
    "sidewalk": "separate",
    "surface": "asphalt"
  }
},
{
  "type": "way",
  "id": 41859468,
  "center": {
    "lat": 46.8453304,
    "lon": 16.8430864
  },
  "nodes": [
    353555253,
    2171932827,
    11709241212,
    2171932825,
    276984824
  ],
  "tags": {
    "agricultural": "no",
    "bicycle": "no",
    "carriage": "no",
    "highway": "primary",
    "lanes": "5",
    "lanes:backward": "3",
    "lanes:forward": "2",
    "lit": "yes",
    "maxspeed": "50",
    "maxspeed:type": "HU:urban",
    "name": "Rákóczi Ferenc utca",
    "priority_road": "yes",
    "ref": "762",
    "sidewalk": "separate",
    "surface": "asphalt",
    "turn:lanes:backward": "left|through|through;right"
  }
},
{
  "type": "way",
  "id": 42197227,
  "center": {
    "lat": 46.8494118,
    "lon": 16.8209316
  },
  "nodes": [
    525433385,
    525433396,
    525433406,
    525433411,
    2184509552
  ],
  "tags": {
    "highway": "residential",
    "name": "Gyár utca"
  }
},
{
  "type": "way",
  "id": 42197232,
  "center": {
    "lat": 46.8483086,
    "lon": 16.8196997
  },
  "nodes": [
    525433406,
    2183838387,
    525433435,
    2183838390,
    2183838417,
    525433448,
    2184501385,
    2183838376,
    2183838394,
    525433461,
    525433464
  ],
  "tags": {
    "highway": "residential",
    "name": "Szendrey Júlia utca"
  }
},
{
  "type": "way",
  "id": 42197243,
  "center": {
    "lat": 46.8483273,
    "lon": 16.8216713
  },
  "nodes": [
    525433497,
    525433500,
    2183838427,
    2183838382,
    525433554,
    2184454710,
    525433396,
    525433566
  ],
  "tags": {
    "highway": "residential",
    "name": "Móra Ferenc utca"
  }
},
{
  "type": "way",
  "id": 42197245,
  "center": {
    "lat": 46.8480860,
    "lon": 16.8230120
  },
  "nodes": [
    525433593,
    1618903575,
    525433385,
    13515648060,
    11250220272,
    525433602
  ],
  "tags": {
    "highway": "residential",
    "name": "Karácsony Sándor utca",
    "surface": "asphalt"
  }
},
{
  "type": "way",
  "id": 42197256,
  "center": {
    "lat": 46.8256217,
    "lon": 16.7936194
  },
  "nodes": [
    525433678,
    2201716625,
    13379823434,
    525433685,
    2201716640,
    525433696,
    2201716632,
    525433703,
    2201716618,
    525433705,
    2201716589,
    525433708,
    3041385377
  ],
  "tags": {
    "highway": "residential",
    "name": "Majori utca"
  }
},
{
  "type": "way",
  "id": 42197290,
  "center": {
    "lat": 46.8435676,
    "lon": 16.8132244
  },
  "nodes": [
    525433746,
    2183838395,
    2183838422,
    525433754,
    2183838392,
    2183838425,
    1302720195,
    2189983019,
    525433760,
    525433771,
    2190030219,
    2189983076,
    2190030221,
    2190030139,
    525433784,
    2184366283,
    2190030149,
    525433856,
    2184366233,
    2184366229,
    525433870,
    2184366281,
    525433877,
    525433890,
    525433901,
    2184366257,
    525433920,
    525433927,
    525433939,
    2190030180,
    525433950,
    525433955,
    2190030273,
    525433964,
    2189951324,
    525433977,
    2189951101,
    525433984,
    525433996
  ],
  "tags": {
    "highway": "residential",
    "name": "Ebergényi út",
    "surface": "asphalt"
  }
},
{
  "type": "way",
  "id": 42197302,
  "center": {
    "lat": 46.8481828,
    "lon": 16.8254738
  },
  "nodes": [
    525434316,
    525434329,
    8434171949,
    525434331,
    525434335,
    3910438054
  ],
  "tags": {
    "highway": "residential",
    "name": "Béke utca"
  }
},
{
  "type": "way",
  "id": 42197306,
  "center": {
    "lat": 46.8485506,
    "lon": 16.8242326
  },
  "nodes": [
    525434359,
    525434368,
    525434384
  ],
  "tags": {
    "highway": "residential",
    "name": "Perlaki utca"
  }
},
{
  "type": "way",
  "id": 42197310,
  "center": {
    "lat": 46.8496324,
    "lon": 16.8225061
  },
  "nodes": [
    525434410,
    525434423
  ],
  "tags": {
    "highway": "residential",
    "name": "Muskátli utca"
  }
},
{
  "type": "way",
  "id": 42197333,
  "center": {
    "lat": 46.8483763,
    "lon": 16.8186802
  },
  "nodes": [
    525434620,
    13522960135,
    525433411,
    2183838383,
    2183838396,
    525434638,
    525434651,
    2183838410,
    2183838416,
    525434660,
    2183838431,
    2183838409,
    525433746
  ],
  "tags": {
    "highway": "residential",
    "name": "Helikon utca"
  }
},
{
  "type": "way",
  "id": 42197360,
  "center": {
    "lat": 46.8435726,
    "lon": 16.8098957
  },
  "nodes": [
    1302719996,
    2189971860,
    2189972158,
    1302719855,
    1302719735,
    1302720154,
    2184366256,
    2184366225,
    1302719923,
    1302719798,
    2184366289,
    2189972125,
    1302719666,
    2189972272,
    1302720096,
    2189951428,
    2189951418,
    1302719751,
    1302720171,
    1776053976,
    1302720065,
    525433996
  ],
  "tags": {
    "highway": "residential",
    "name": "Akácfa sor",
    "surface": "asphalt"
  }
},
{
  "type": "way",
  "id": 42197407,
  "center": {
    "lat": 46.8342658,
    "lon": 16.8090548
  },
  "nodes": [
    525435000,
    2185933652,
    2185933614,
    525435295,
    2185933787,
    525435309,
    2185933608,
    525435317,
    2185933774,
    2185933705,
    2185933700,
    525435324,
    2192433660,
    525435336
  ],
  "tags": {
    "highway": "residential",
    "lanes": "1",
    "lit": "yes",
    "maxspeed": "50",
    "maxspeed:type": "HU:urban",
    "maxweight": "5",
    "name": "Egerszeghegyi út",
    "sidewalk": "no",
    "surface": "asphalt"
  }
},
{
  "type": "way",
  "id": 42197416,
  "center": {
    "lat": 46.8279428,
    "lon": 16.8015882
  },
  "nodes": [
    525435129,
    525435408,
    2201737997,
    2201738106,
    525435417,
    525435422,
    2201738015,
    525435433,
    525435447,
    2201738031
  ],
  "tags": {
    "highway": "residential",
    "lanes": "1",
    "lit": "yes",
    "maxspeed": "50",
    "maxspeed:type": "HU:urban",
    "name": "Mandulás utca",
    "sidewalk": "no",
    "surface": "asphalt"
  }
},
{
  "type": "way",
  "id": 42197433,
  "center": {
    "lat": 46.8469607,
    "lon": 16.8226615
  },
  "nodes": [
    525435623,
    8433210740,
    2183812416,
    2183812313,
    2183812358,
    2183812334,
    2183812360,
    525434335,
    2183838388,
    525435651,
    2183838419,
    2183838381,
    525434359,
    2183838380,
    2183838411,
    525433593,
    2183838415,
    525433497,
    2183838403,
    525435656,
    2183838420,
    2183838402,
    2183838428,
    525433464,
    2183838404,
    2183838407,
    2183838378,
    2183838414,
    525433746
  ],
  "tags": {
    "highway": "residential",
    "name": "Ebergényi út",
    "sidewalk": "both",
    "surface": "asphalt"
  }
},
{
  "type": "way",
  "id": 42198160,
  "center": {
    "lat": 46.8372531,
    "lon": 16.8451871
  },
  "nodes": [
    525443396,
    525443397,
    2904376021
  ],
  "tags": {
    "highway": "residential",
    "lane_markings": "no",
    "maxweight": "2.5",
    "name": "Táncsics Mihály utca",
    "oneway": "yes",
    "surface": "asphalt"
  }
},
{
  "type": "way",
  "id": 43328627,
  "center": {
    "lat": 46.8285824,
    "lon": 16.8521920
  },
  "nodes": [
    353573488,
    365763886,
    2203160187,
    365763887,
    2169496695,
    2169496704,
    544554527,
    2169496711,
    544554528,
    2169496693,
    544554532,
    2169496687,
    13578099887
  ],
  "tags": {
    "highway": "residential",
    "lanes": "2",
    "lit": "yes",
    "maxspeed": "50",
    "maxspeed:type": "HU:urban",
    "name": "Juhász Gyula utca",
    "sidewalk": "no",
    "surface": "asphalt"
  }
},
{
  "type": "way",
  "id": 43328629,
  "center": {
    "lat": 46.8036362,
    "lon": 16.8050542
  },
  "nodes": [
    368267397,
    11256386882,
    11256386883,
    11256386884,
    368267398,
    368267399,
    12348635281,
    544554517,
    13376247071,
    3911450561,
    12348635280,
    544554519,
    12348635279,
    3911450555,
    544554520,
    11256503312,
    13577465681,
    3911450521,
    544554521,
    11256503311,
    11256503310,
    544554523,
    12348635278,
    544554508,
    544554509,
    544554510,
    544554511,
    544554512,
    12348635276
  ],
  "tags": {
    "cycleway:both": "no",
    "highway": "secondary",
    "lanes": "2",
    "lit": "yes",
    "maxspeed": "50",
    "maxspeed:type": "HU:urban",
    "name": "Bazitai út",
    "ref": "7403",
    "sidewalk:left": "separate",
    "sidewalk:right": "no",
    "surface": "asphalt"
  }
},
{
  "type": "way",
  "id": 43561973,
  "center": {
    "lat": 46.8088621,
    "lon": 16.8476409
  },
  "nodes": [
    550053195,
    550053196,
    2203267295,
    2203267243,
    1828662536,
    550053198,
    7729328538,
    7729328537,
    550053179,
    550053181,
    2203267307,
    550053182,
    2203267264,
    550053184,
    2203267322,
    2203267337,
    6440312766,
    1775945287
  ],
  "tags": {
    "highway": "residential",
    "maxspeed": "30",
    "maxweight": "5",
    "name": "Hegyi út"
  }
},
{
  "type": "way",
  "id": 45197562,
  "center": {
    "lat": 46.8426179,
    "lon": 16.8320016
  },
  "nodes": [
    368243702,
    9738203990,
    381401443
  ],
  "tags": {
    "cycleway:left": "no",
    "cycleway:right": "separate",
    "highway": "tertiary",
    "lanes": "2",
    "lit": "yes",
    "maxspeed": "50",
    "maxspeed:type": "HU:urban",
    "name": "Platán sor",
    "sidewalk": "separate",
    "surface": "asphalt"
  }
},
{
  "type": "way",
  "id": 45197567,
  "center": {
    "lat": 46.8360237,
    "lon": 16.8260816
  },
  "nodes": [
    368247143,
    2178785900,
    368247053,
    2178785856,
    368247054,
    2178785862,
    2178785860,
    368247055,
    2178785920,
    368247056,
    2178785895,
    368247057,
    2178785852,
    2178785919,
    368247058,
    2178785861,
    2178785890,
    368247118,
    2178785885,
    368247059,
    2178785893,
    368247982,
    368247245,
    2178817473,
    2178817506,
    2178817480,
    2178817491,
    368247062,
    2178817499,
    2178817513,
    3910437903,
    6004822086,
    368247063,
    2178817493,
    2178828835
  ],
  "tags": {
    "highway": "residential",
    "lanes": "2",
    "lit": "yes",
    "maxspeed": "50",
    "name": "Landorhegyi út"
  }
},
{
  "type": "way",
  "id": 45197576,
  "center": {
    "lat": 46.8361258,
    "lon": 16.8323227
  },
  "nodes": [
    276097275,
    4872479161,
    11709241222,
    2178768173,
    11772091046,
    276097276,
    2178768138,
    2178768153,
    2178768132,
    1453521608,
    2180344933,
    276097277,
    2178768147,
    2178768181,
    1453521611,
    2178768155,
    368245955
  ],
  "tags": {
    "highway": "secondary",
    "lanes": "2",
    "lit": "yes",
    "maxspeed": "50",
    "maxspeed:type": "HU:urban",
    "name": "Göcseji út",
    "ref": "7401",
    "sidewalk:left": "separate",
    "sidewalk:right": "yes",
    "surface": "asphalt"
  }
},
{
  "type": "way",
  "id": 45197604,
  "center": {
    "lat": 46.8476602,
    "lon": 16.8273669
  },